,Letter,City,Population,GoogleUrl,YandexUrl,WikiUrl,PicUrl,MapUrl,Latitude,Longitude
0,а,Астрахань,529793,https://www.google.com/search?q=Астрахань,https://yandex.ru/search/?text=Астрахань,https://ru.wikipedia.org/wiki/Астрахань,https://upload.wikimedia.org/wikipedia/commons/4/4c/%D0%90%D1%81%D1%82%D1%80%D0%B0%D1%85%D0%B0%D0%BD%D1%81%D0%BA%D0%B8%D0%B9_%D0%BA%D1%80%D0%B5%D0%BC%D0%BB%D1%8C.jpg,https://www.openstreetmap.org/search?query=Астрахань,46.34,48.04
1,а,Архангельск,346979,https://www.google.com/search?q=Архангельск,https://yandex.ru/search/?text=Архангельск,https://ru.wikipedia.org/wiki/Архангельск,https://upload.wikimedia.org/wikipedia/commons/3/3e/Arkhangelsk_view_from_Vysotka.jpg,https://www.openstreetmap.org/search?query=Архангельск,54.9,59.74
2,а,Ангарск,224630,https://www.google.com/search?q=Ангарск,https://yandex.ru/search/?text=Ангарск,https://ru.wikipedia.org/wiki/Ангарск,https://upload.wikimedia.org/wikipedia/commons/c/c4/Angarsk_car_Volga_GAZ-21_%2825720495842%29.jpg,https://www.openstreetmap.org/search?query=Ангарск,52.53,103.88
3,а,Армавир,188960,https://www.google.com/search?q=Армавир,https://yandex.ru/search/?text=Армавир,https://ru.wikipedia.org/wiki/Армавир_(город),https://upload.wikimedia.org/wikipedia/commons/b/b6/%D0%92%D0%BE%D0%BA%D0%B7%D0%B0%D0%BB_%D0%B2_%D0%90%D1%80%D0%BC%D0%B0%D0%B2%D0%B8%D1%80%D0%B5.jpg,https://www.openstreetmap.org/search?query=Армавир,44.98,41.12
4,а,Абакан,186797,https://www.google.com/search?q=Абакан,https://yandex.ru/search/?text=Абакан,https://ru.wikipedia.org/wiki/Абакан,https://upload.wikimedia.org/wikipedia/commons/2/27/Abakan-.jpg,https://www.openstreetmap.org/search?query=Абакан,53.71,91.42
5,а,Альметьевск,158429,https://www.google.com/search?q=Альметьевск,https://yandex.ru/search/?text=Альметьевск,https://ru.wikipedia.org/wiki/Альметьевск,https://upload.wikimedia.org/wikipedia/commons/e/e6/Almetjewsk-Dramatheater-2006.jpg,https://www.openstreetmap.org/search?query=Альметьевск,54.88,52.33
6,а,Артем,105675,https://www.google.com/search?q=Артем,https://yandex.ru/search/?text=Артем,https://ru.wikipedia.org/wiki/Артем_(город),https://upload.wikimedia.org/wikipedia/commons/5/53/%D0%90%D1%80%D1%82%D1%91%D0%BC_%D0%B3%D0%BE%D1%80%D0%BE%D0%B4_%D0%BA%D0%BE%D0%BB%D0%BB%D0%B0%D0%B6.jpg,https://www.openstreetmap.org/search?query=Артем,43.36,132.19
7,а,Ачинск,105531,https://www.google.com/search?q=Ачинск,https://yandex.ru/search/?text=Ачинск,https://ru.wikipedia.org/wiki/Ачинск,https://upload.wikimedia.org/wikipedia/commons/2/2b/%D0%90%D1%87%D0%B8%D0%BD%D1%81%D0%BA.jpg,https://www.openstreetmap.org/search?query=Ачинск,56.2694,90.4993
8,а,Арзамас,103979,https://www.google.com/search?q=Арзамас,https://yandex.ru/search/?text=Арзамас,https://ru.wikipedia.org/wiki/Арзамас,https://upload.wikimedia.org/wikipedia/commons/d/d7/Arzamas_Montage.jpg,https://www.openstreetmap.org/search?query=Арзамас,55.38,43.82
9,а,Анапа,88879,https://www.google.com/search?q=Анапа,https://yandex.ru/search/?text=Анапа,https://ru.wikipedia.org/wiki/Анапа,https://upload.wikimedia.org/wikipedia/commons/8/84/Anapa%27s_harbor_-_panoramio_-_Konstantin_K%C4%8D.jpg,https://www.openstreetmap.org/search?query=Анапа,44.89,37.32
10,а,Азов,80428,https://www.google.com/search?q=Азов,https://yandex.ru/search/?text=Азов,https://ru.wikipedia.org/wiki/Азов,https://upload.wikimedia.org/wikipedia/commons/6/65/%D0%90%D0%B7%D0%BE%D0%B2_%28%D0%A0%D0%BE%D1%81%D1%82%D0%BE%D0%B2%D1%81%D0%BA%D0%B0%D1%8F_%D0%BE%D0%B1%D0%BB%D0%B0%D1%81%D1%82%D1%8C%29.jpg,https://www.openstreetmap.org/search?query=Азов,47.11,39.41
11,а,Анжеро-Судженск,68116,https://www.google.com/search?q=Анжеро-Судженск,https://yandex.ru/search/?text=Анжеро-Судженск,https://ru.wikipedia.org/wiki/Анжеро-Судженск,https://upload.wikimedia.org/wikipedia/commons/b/b8/%D0%97%D0%B4%D0%B0%D0%BD%D0%B8%D0%B5_%D0%B0%D0%B4%D0%BC%D0%B8%D0%BD%D0%B8%D1%81%D1%82%D1%80%D0%B0%D1%86%D0%B8%D0%B8_%D0%B3%D0%BE%D1%80%D0%BE%D0%B4%D0%B0_%D0%90%D0%BD%D0%B6%D0%B5%D1%80%D0%BE-%D0%A1%D1%83%D0%B4%D0%B6%D0%B5%D0%BD%D1%81%D0%BA%D0%B0_%283%29.jpg,https://www.openstreetmap.org/search?query=Анжеро-Судженск,56.07,86.03
12,а,Асбест,62908,https://www.google.com/search?q=Асбест,https://yandex.ru/search/?text=Асбест,https://ru.wikipedia.org/wiki/Асбест,https://upload.wikimedia.org/wikipedia/commons/b/b7/Asbestos_fibres.jpg,https://www.openstreetmap.org/search?query=Асбест,57.01,61.45
13,а,Александров,57899,https://www.google.com/search?q=Александров,https://yandex.ru/search/?text=Александров,https://ru.wikipedia.org/wiki/Александров_(город),https://upload.wikimedia.org/wikipedia/commons/5/5d/Alexandrovskaya_Sloboda.jpg,https://www.openstreetmap.org/search?query=Александров,56.4,38.7167
14,а,Алексин,57516,https://www.google.com/search?q=Алексин,https://yandex.ru/search/?text=Алексин,https://ru.wikipedia.org/wiki/Алексин,https://upload.wikimedia.org/wikipedia/commons/4/48/%D0%94%D0%B2%D0%BE%D1%80_%D1%83%D1%81%D0%B0%D0%B4%D1%8C%D0%B1%D1%8B_%D0%9C%D0%B0%D1%81%D0%BB%D0%BE%D0%B2%D0%B0.jpg,https://www.openstreetmap.org/search?query=Алексин,54.51,37.08
15,а,Апатиты,54667,https://www.google.com/search?q=Апатиты,https://yandex.ru/search/?text=Апатиты,https://ru.wikipedia.org/wiki/Апатиты,https://upload.wikimedia.org/wikipedia/commons/9/97/Apatity_and_Khibiny_mountains.JPG,https://www.openstreetmap.org/search?query=Апатиты,67.56,33.39
16,а,Арсеньев,52173,https://www.google.com/search?q=Арсеньев,https://yandex.ru/search/?text=Арсеньев,https://ru.wikipedia.org/wiki/Арсеньев_(город),https://upload.wikimedia.org/wikipedia/commons/a/ae/%D0%90%D1%80%D1%81%D0%B5%D0%BD%D1%8C%D0%B5%D0%B2_%D0%B2%D0%B8%D0%B4_%D1%81_%D0%9E%D0%B1%D0%B7%D0%BE%D1%80%D0%BD%D0%BE%D0%B9.JPG,https://www.openstreetmap.org/search?query=Арсеньев,44.16,133.27
17,а,Аксай,46018,https://www.google.com/search?q=Аксай,https://yandex.ru/search/?text=Аксай,https://ru.wikipedia.org/w/index.php?search=Аксай,,https://www.openstreetmap.org/search?query=Аксай,47.95,43.97
18,а,Апшеронск,39488,https://www.google.com/search?q=Апшеронск,https://yandex.ru/search/?text=Апшеронск,https://ru.wikipedia.org/wiki/Апшеронск,https://upload.wikimedia.org/wikipedia/commons/5/52/%D0%90%D0%BF%D1%88%D0%B5%D1%80%D0%BE%D0%BD%D1%81%D0%BA.jpg,https://www.openstreetmap.org/search?query=Апшеронск,44.46,39.73
19,а,Аргун,39275,https://www.google.com/search?q=Аргун,https://yandex.ru/search/?text=Аргун,https://ru.wikipedia.org/wiki/Аргун_(город),https://upload.wikimedia.org/wikipedia/commons/1/14/Argun_PB040153_2200.jpg,https://www.openstreetmap.org/search?query=Аргун,43.29,45.87
20,а,Абинск,39058,https://www.google.com/search?q=Абинск,https://yandex.ru/search/?text=Абинск,https://ru.wikipedia.org/wiki/Абинск,https://upload.wikimedia.org/wikipedia/commons/4/44/Center_of_Abinsk._August_2014._-_%D0%A6%D0%B5%D0%BD%D1%82%D1%80_%D0%90%D0%B1%D0%B8%D0%BD%D1%81%D0%BA%D0%B0._%D0%90%D0%B2%D0%B3%D1%83%D1%81%D1%82_2014._-_panoramio.jpg,https://www.openstreetmap.org/search?query=Абинск,44.86,38.16
21,а,Амурск,38913,https://www.google.com/search?q=Амурск,https://yandex.ru/search/?text=Амурск,https://ru.wikipedia.org/wiki/Амурск,https://upload.wikimedia.org/wikipedia/commons/4/4c/%D0%90%D0%BC%D1%83%D1%80%D1%81%D0%BA%2C_%D0%B8%D1%8E%D0%BD%D1%8C_2016_%2827%29.jpg,https://www.openstreetmap.org/search?query=Амурск,50.2261,136.8994
22,а,Алексеевка,37811,https://www.google.com/search?q=Город+Алексеевка+в+Белгородской+области,https://yandex.ru/search/?text=Город+Алексеевка+в+Белгородской+области,"https://ru.wikipedia.org/wiki/Алексеевка_(город,_Белгородская_область)",https://upload.wikimedia.org/wikipedia/commons/e/e6/%D0%A1%D0%B2%D1%8F%D1%82%D0%BE-%D0%A2%D1%80%D0%BE%D0%B8%D1%86%D0%BA%D0%B8%D0%B9_%D1%85%D1%80%D0%B0%D0%BC_%28Holy_Trinity_Cathedral%29_-_%D0%90%D0%BB%D0%B5%D0%BA%D1%81%D0%B5%D0%B5%D0%B2%D0%BA%D0%B0_%28Alekseevka%29.jpg,https://www.openstreetmap.org/search?query=Алексеевка,54.76,75.45
23,а,Алапаевск,37131,https://www.google.com/search?q=Алапаевск,https://yandex.ru/search/?text=Алапаевск,https://ru.wikipedia.org/wiki/Алапаевск,https://upload.wikimedia.org/wikipedia/commons/8/89/%D0%90%D0%BB%D0%B0%D0%BF%D0%B0%D0%B5%D0%B2%D1%81%D0%BA.jpg,https://www.openstreetmap.org/search?query=Алапаевск,57.85,61.69
24,а,Ахтубинск,36544,https://www.google.com/search?q=Ахтубинск,https://yandex.ru/search/?text=Ахтубинск,https://ru.wikipedia.org/wiki/Ахтубинск,https://upload.wikimedia.org/wikipedia/commons/3/33/%D0%9F%D0%B0%D1%80%D0%BA%D0%90%D1%85%D1%82%D1%83%D0%B1%D0%B8%D0%BD%D1%81%D0%BA.jpg,https://www.openstreetmap.org/search?query=Ахтубинск,48.27,46.17
25,а,Азнакаево,34197,https://www.google.com/search?q=Азнакаево,https://yandex.ru/search/?text=Азнакаево,https://ru.wikipedia.org/wiki/Азнакаево,,https://www.openstreetmap.org/search?query=Азнакаево,54.85,53.1
26,а,Алатырь,33752,https://www.google.com/search?q=Алатырь,https://yandex.ru/search/?text=Алатырь,https://ru.wikipedia.org/wiki/Алатырь,https://upload.wikimedia.org/wikipedia/commons/f/f7/%D0%90%D0%BB%D0%B0%D1%82%D1%8B%D1%80%D1%8C%2C_%D1%83%D0%BB%D0%B8%D1%86%D0%B0_%D0%9A%D0%B8%D1%80%D0%BE%D0%B2%D0%B0%2C_1.jpg,https://www.openstreetmap.org/search?query=Алатырь,54.85,46.6
27,а,Апрелевка,30669,https://www.google.com/search?q=Апрелевка,https://yandex.ru/search/?text=Апрелевка,https://ru.wikipedia.org/wiki/Апрелевка,https://upload.wikimedia.org/wikipedia/commons/7/79/Aprelevka_panorma.jpg,https://www.openstreetmap.org/search?query=Апрелевка,55.53,37.06
28,а,Артемовский,30101,https://www.google.com/search?q=Артемовский,https://yandex.ru/search/?text=Артемовский,https://ru.wikipedia.org/wiki/Артемовский,https://upload.wikimedia.org/wikipedia/commons/2/2a/%D0%92%D0%B5%D0%BD%D1%82%D0%BF%D1%80%D0%BE%D0%BC.gif,https://www.openstreetmap.org/search?query=Артемовский,57.35,61.87
29,а,Алушта,30088,https://www.google.com/search?q=Алушта,https://yandex.ru/search/?text=Алушта,https://ru.wikipedia.org/wiki/Алушта,https://upload.wikimedia.org/wikipedia/commons/0/02/AlushtaPanorama_banner.jpg,https://www.openstreetmap.org/search?query=Алушта,58.014965,56.246723
30,а,Аша,29066,https://www.google.com/search?q=Аша,https://yandex.ru/search/?text=Аша,https://ru.wikipedia.org/wiki/Аша,https://upload.wikimedia.org/wikipedia/commons/7/7d/Asha.jpg,https://www.openstreetmap.org/search?query=Аша,55.0,57.26
31,а,Алейск,28974,https://www.google.com/search?q=Алейск,https://yandex.ru/search/?text=Алейск,https://ru.wikipedia.org/wiki/Алейск,https://upload.wikimedia.org/wikipedia/commons/d/d2/%D0%90%D0%BB%D0%B5%D0%B9%D1%81%D0%BA._%D0%9C%D0%B0%D0%BB%D0%BE%D0%BF%D0%B0%D0%BD%D1%8E%D1%88%D0%B5%D0%B2%D0%BE..jpg,https://www.openstreetmap.org/search?query=Алейск,52.49,82.77
32,а,Асино,24346,https://www.google.com/search?q=Асино,https://yandex.ru/search/?text=Асино,https://ru.wikipedia.org/wiki/Асино,https://upload.wikimedia.org/wikipedia/commons/7/7f/Asino%2C_street_scene.jpg,https://www.openstreetmap.org/search?query=Асино,57.0,86.14
33,а,Аткарск,24125,https://www.google.com/search?q=Аткарск,https://yandex.ru/search/?text=Аткарск,https://ru.wikipedia.org/wiki/Аткарск,https://upload.wikimedia.org/wikipedia/commons/d/da/Ratusha_atkarsk.jpg,https://www.openstreetmap.org/search?query=Аткарск,51.87,45.0
34,а,Арск,22970,https://www.google.com/search?q=Арск,https://yandex.ru/search/?text=Арск,https://ru.wikipedia.org/wiki/Арск,https://upload.wikimedia.org/wikipedia/commons/5/59/Arsk_train_station%2C_Gor%27kovskaya_railways%2C_Russia._Main_hall_view.jpg,https://www.openstreetmap.org/search?query=Арск,56.08,49.87
35,а,Армянск,21406,https://www.google.com/search?q=Армянск,https://yandex.ru/search/?text=Армянск,https://ru.wikipedia.org/wiki/Армянск,https://upload.wikimedia.org/wikipedia/commons/3/3c/%D0%90%D1%80%D0%BC%D1%8F%D0%BD%D1%81%D1%8C%D0%BA-%D0%BA%D0%B2%D0%B0%D1%80%D1%82%D0%B0%D0%BB%D0%B8.JPG,https://www.openstreetmap.org/search?query=Армянск,58.014965,56.246723
36,а,Алдан,20631,https://www.google.com/search?q=Алдан,https://yandex.ru/search/?text=Алдан,https://ru.wikipedia.org/wiki/Алдан_(город),https://upload.wikimedia.org/wikipedia/commons/7/77/Aldan_station.jpg,https://www.openstreetmap.org/search?query=Алдан,58.6,125.38
37,а,Алагир,19737,https://www.google.com/search?q=Алагир,https://yandex.ru/search/?text=Алагир,https://ru.wikipedia.org/wiki/Алагир,https://upload.wikimedia.org/wikipedia/commons/2/2b/%D0%90%D0%BB%D0%B0%D0%B3%D0%B8%D1%80%D1%86%D0%B5%D1%80%D0%BA%D0%BE%D0%B2%D1%8C.jpg,https://www.openstreetmap.org/search?query=Алагир,43.0008,44.2168
38,а,Агрыз,19721,https://www.google.com/search?q=Агрыз,https://yandex.ru/search/?text=Агрыз,https://ru.wikipedia.org/wiki/Агрыз,https://upload.wikimedia.org/wikipedia/commons/3/31/Agryz_town%2C_Republic_of_Tatarstan%2C_Russia._Train_station_hall._Main_view.jpg,https://www.openstreetmap.org/search?query=Агрыз,56.5192,52.9964
39,а,Ардон,19298,https://www.google.com/search?q=Ардон,https://yandex.ru/search/?text=Ардон,https://ru.wikipedia.org/wiki/Ардон_(город),https://upload.wikimedia.org/wikipedia/commons/5/55/%D0%90%D1%80%D0%B4%D0%BE%D0%BD.jpg,https://www.openstreetmap.org/search?query=Ардон,43.17,44.29
40,а,Абдулино,18581,https://www.google.com/search?q=Абдулино,https://yandex.ru/search/?text=Абдулино,https://ru.wikipedia.org/wiki/Абдулино,https://upload.wikimedia.org/wikipedia/commons/3/3d/Abdulino_railway_station.jpg,https://www.openstreetmap.org/search?query=Абдулино,53.7,53.66
41,а,Анадырь,15819,https://www.google.com/search?q=Анадырь,https://yandex.ru/search/?text=Анадырь,https://ru.wikipedia.org/wiki/Анадырь,https://upload.wikimedia.org/wikipedia/commons/0/05/%D0%90%D0%BD%D0%B0%D0%B4%D1%8B%D1%80%D1%8C_%D0%BA%D0%BE%D0%BB%D0%BB%D0%B0%D0%B6.jpg,https://www.openstreetmap.org/search?query=Анадырь,64.75,177.48
42,а,Арамиль,15446,https://www.google.com/search?q=Арамиль,https://yandex.ru/search/?text=Арамиль,https://ru.wikipedia.org/wiki/Арамиль,https://upload.wikimedia.org/wikipedia/commons/3/33/%D0%A1%D0%BE%D0%B1%D0%BE%D1%80_%D0%B2_%D0%90%D1%80%D0%B0%D0%BC%D0%B8%D0%BB%D0%B5.JPG,https://www.openstreetmap.org/search?query=Арамиль,56.7,60.83
43,а,Абаза,14990,https://www.google.com/search?q=Абаза,https://yandex.ru/search/?text=Абаза,https://ru.wikipedia.org/wiki/Абаза_(город),https://upload.wikimedia.org/wikipedia/commons/0/01/%D0%93%D0%BE%D1%80%D0%BE%D0%B4_%D0%90%D0%B1%D0%B0%D0%B7%D0%B0.jpg,https://www.openstreetmap.org/search?query=Абаза,52.65,90.09
44,а,Агидель,14219,https://www.google.com/search?q=Агидель,https://yandex.ru/search/?text=Агидель,https://ru.wikipedia.org/wiki/Агидель,,https://www.openstreetmap.org/search?query=Агидель,55.87,53.93
45,а,Ак-Довурак,13609,https://www.google.com/search?q=Ак-Довурак,https://yandex.ru/search/?text=Ак-Довурак,https://ru.wikipedia.org/wiki/Ак-Довурак,https://upload.wikimedia.org/wikipedia/commons/d/d8/Ak-Dovurak.png,https://www.openstreetmap.org/search?query=Ак-Довурак,51.18,90.6
46,а,Адыгейск,12721,https://www.google.com/search?q=Адыгейск,https://yandex.ru/search/?text=Адыгейск,https://ru.wikipedia.org/wiki/Адыгейск,https://upload.wikimedia.org/wikipedia/commons/f/f1/%D0%90%D0%B4%D1%8B%D0%B3%D0%B5%D0%B9%D1%81%D0%BA_%D0%B7%D0%B8%D0%BC%D0%BE%D0%B9.jpg,https://www.openstreetmap.org/search?query=Адыгейск,44.88,39.19
47,а,Александровск,11935,https://www.google.com/search?q=Александровск,https://yandex.ru/search/?text=Александровск,https://ru.wikipedia.org/wiki/Александровск_(город),https://upload.wikimedia.org/wikipedia/commons/7/73/%D0%9D%D1%96%D1%87%D0%BD%D0%B8%D0%B9_%D0%BF%D1%80%D0%BE%D1%81%D0%BF%D0%B5%D0%BA%D1%82.jpg,https://www.openstreetmap.org/search?query=Александровск,59.15,57.56
48,а,Аркадак,11516,https://www.google.com/search?q=Аркадак,https://yandex.ru/search/?text=Аркадак,https://ru.wikipedia.org/wiki/Аркадак,https://upload.wikimedia.org/wikipedia/commons/5/5f/%D0%90%D1%80%D0%BA%D0%B0%D0%B4%D0%B0%D0%BA%D1%81%D0%BA%D0%B0%D1%8F_%D1%86%D0%B5%D1%80%D0%BA%D0%BE%D0%B2%D1%8C.jpg,https://www.openstreetmap.org/search?query=Аркадак,51.93,43.5
49,а,Анива,9378,https://www.google.com/search?q=Анива,https://yandex.ru/search/?text=Анива,https://ru.wikipedia.org/wiki/Анива_(город),https://upload.wikimedia.org/wikipedia/commons/0/0c/Aniva_01.jpg,https://www.openstreetmap.org/search?query=Анива,46.7144,142.5294
50,а,Александровск-Сахалинский,9125,https://www.google.com/search?q=Александровск-Сахалинский,https://yandex.ru/search/?text=Александровск-Сахалинский,https://ru.wikipedia.org/wiki/Александровск-Сахалинский,https://upload.wikimedia.org/wikipedia/commons/4/40/%D0%9C%D0%B0%D1%8F%D0%BA_%D0%BD%D0%B0_%D0%BC%D1%8B%D1%81%D0%B5_%D0%96%D0%BE%D0%BD%D0%BA%D1%8C%D0%B5%D1%80.jpg,https://www.openstreetmap.org/search?query=Александровск-Сахалинский,50.89,142.15
51,а,Ардатов,8294,https://www.google.com/search?q=Ардатов,https://yandex.ru/search/?text=Ардатов,https://ru.wikipedia.org/wiki/Ардатов_(город),https://upload.wikimedia.org/wikipedia/commons/3/39/Ardatov%2C_Russia_landscape_-_panoramio.jpg,https://www.openstreetmap.org/search?query=Ардатов,55.23,43.09
52,а,Алупка,8075,https://www.google.com/search?q=Алупка,https://yandex.ru/search/?text=Алупка,https://ru.wikipedia.org/wiki/Алупка,https://upload.wikimedia.org/wikipedia/commons/2/21/Alupka_castle.jpg,https://www.openstreetmap.org/search?query=Алупка,58.014965,56.246723
53,а,Андреаполь,6801,https://www.google.com/search?q=Андреаполь,https://yandex.ru/search/?text=Андреаполь,https://ru.wikipedia.org/wiki/Андреаполь,,https://www.openstreetmap.org/search?query=Андреаполь,56.65,32.27
54,а,Алзамай,5749,https://www.google.com/search?q=Алзамай,https://yandex.ru/search/?text=Алзамай,https://ru.wikipedia.org/wiki/Алзамай,https://upload.wikimedia.org/wikipedia/commons/8/8f/Alzamay_Post_Office_-_665160_-_3.jpeg,https://www.openstreetmap.org/search?query=Алзамай,55.55,98.66
55,а,Артемовск,1562,https://www.google.com/search?q=Артемовск,https://yandex.ru/search/?text=Артемовск,https://ru.wikipedia.org/wiki/Артемовск,https://upload.wikimedia.org/wikipedia/commons/b/bb/Flag_of_Bakhmut_%28Donetsk_Oblast%29.svg,https://www.openstreetmap.org/search?query=Артемовск,54.34,93.43
56,б,Барнаул,632391,https://www.google.com/search?q=Барнаул,https://yandex.ru/search/?text=Барнаул,https://ru.wikipedia.org/wiki/Барнаул,https://upload.wikimedia.org/wikipedia/commons/7/7e/Barnaul_Skyline_2007.jpg,https://www.openstreetmap.org/search?query=Барнаул,53.36,83.76
57,б,Балашиха,507366,https://www.google.com/search?q=Балашиха,https://yandex.ru/search/?text=Балашиха,https://ru.wikipedia.org/wiki/Балашиха,https://upload.wikimedia.org/wikipedia/commons/a/af/Balashikha_Collage_01.png,https://www.openstreetmap.org/search?query=Балашиха,55.8,37.94
58,б,Брянск,420444,https://www.google.com/search?q=Брянск,https://yandex.ru/search/?text=Брянск,https://ru.wikipedia.org/wiki/Брянск,https://upload.wikimedia.org/wikipedia/commons/d/d3/%D0%9A%D0%BE%D0%BB%D0%BB%D0%B0%D0%B6_%D0%91%D1%80%D1%8F%D0%BD%D1%81%D0%BA.jpg,https://www.openstreetmap.org/search?query=Брянск,53.2875,34.3806
59,б,Белгород,394142,https://www.google.com/search?q=Белгород,https://yandex.ru/search/?text=Белгород,https://ru.wikipedia.org/wiki/Белгород,https://upload.wikimedia.org/wikipedia/commons/7/75/%D0%92%D0%B8%D0%B4_%D0%BD%D0%B0_%D1%86%D0%B5%D0%BD%D1%82%D1%80%D0%B0%D0%BB%D1%8C%D0%BD%D1%83%D1%8E_%D0%B8_%D1%81%D0%B5%D0%B2%D0%B5%D1%80%D0%BD%D1%83%D1%8E_%D1%87%D0%B0%D1%81%D1%82%D1%8C_%D0%B3%D0%BE%D1%80%D0%BE%D0%B4%D0%B0.jpg,https://www.openstreetmap.org/search?query=Белгород,50.61,36.58
60,б,Братск,226269,https://www.google.com/search?q=Братск,https://yandex.ru/search/?text=Братск,https://ru.wikipedia.org/wiki/Братск,https://upload.wikimedia.org/wikipedia/commons/3/3d/Wasserkraftwerk-Bratsk.jpg,https://www.openstreetmap.org/search?query=Братск,56.1325,101.6142
61,б,Бийск,199464,https://www.google.com/search?q=Бийск,https://yandex.ru/search/?text=Бийск,https://ru.wikipedia.org/wiki/Бийск,https://upload.wikimedia.org/wikipedia/commons/e/e0/Biysk_-_Sovetskaya_Street.JPG,https://www.openstreetmap.org/search?query=Бийск,52.5667,85.25
62,б,Балаково,187523,https://www.google.com/search?q=Балаково,https://yandex.ru/search/?text=Балаково,https://ru.wikipedia.org/wiki/Балаково,https://upload.wikimedia.org/wikipedia/commons/2/23/Balakovo_panorama_%28WR%29.tif,https://www.openstreetmap.org/search?query=Балаково,52.0247,47.7941
63,б,Березники,139209,https://www.google.com/search?q=Березники,https://yandex.ru/search/?text=Березники,https://ru.wikipedia.org/wiki/Березники,https://upload.wikimedia.org/wikipedia/commons/1/12/Berezniki_City_Administration.jpg,https://www.openstreetmap.org/search?query=Березники,55.86,40.1
64,б,Батайск,127919,https://www.google.com/search?q=Батайск,https://yandex.ru/search/?text=Батайск,https://ru.wikipedia.org/wiki/Батайск,https://upload.wikimedia.org/wikipedia/commons/8/82/%D0%94%D0%9A_%D0%B8%D0%BC._%D0%9B%D0%B5%D0%BD%D0%B8%D0%BD%D0%B0_%D0%B8_%D0%B0%D0%B4%D0%BC%D0%B8%D0%BD%D0%B8%D1%81%D1%82%D1%80%D0%B0%D1%86%D0%B8%D1%8F._%D0%9F%D0%B0%D1%80%D0%BA%2C_%D1%86%D0%B5%D0%BD%D1%82%D1%80._-_panoramio.jpg,https://www.openstreetmap.org/search?query=Батайск,47.16,39.73
65,б,Бердск,104334,https://www.google.com/search?q=Бердск,https://yandex.ru/search/?text=Бердск,https://ru.wikipedia.org/wiki/Бердск,https://upload.wikimedia.org/wikipedia/commons/5/58/Berdsk_city_panoramic.jpg,https://www.openstreetmap.org/search?query=Бердск,54.75,83.09
66,б,Бузулук,86103,https://www.google.com/search?q=Бузулук,https://yandex.ru/search/?text=Бузулук,https://ru.wikipedia.org/wiki/Бузулук,https://upload.wikimedia.org/wikipedia/commons/9/99/Welcome_to_Buzuluk.JPG,https://www.openstreetmap.org/search?query=Бузулук,52.7833,52.25
67,б,Бугульма,82488,https://www.google.com/search?q=Бугульма,https://yandex.ru/search/?text=Бугульма,https://ru.wikipedia.org/wiki/Бугульма,https://upload.wikimedia.org/wikipedia/commons/b/b5/Memorial_BOB_Bugulma_01.jpg,https://www.openstreetmap.org/search?query=Бугульма,54.55,52.8
68,б,Бор,76872,https://www.google.com/search?q=Бор,https://yandex.ru/search/?text=Бор,https://ru.wikipedia.org/w/index.php?search=Бор,,https://www.openstreetmap.org/search?query=Бор,56.3567,44.0669
69,б,Балашов,75773,https://www.google.com/search?q=Балашов,https://yandex.ru/search/?text=Балашов,https://ru.wikipedia.org/wiki/Балашов_(город),https://upload.wikimedia.org/wikipedia/commons/9/99/%D0%9A%D0%BE%D0%BB%D0%BB%D0%B0%D0%B6_%28%D0%B3.%D0%91%D0%B0%D0%BB%D0%B0%D1%88%D0%BE%D0%B2%29.jpg,https://www.openstreetmap.org/search?query=Балашов,51.54,43.17
70,б,Биробиджан,71843,https://www.google.com/search?q=Биробиджан,https://yandex.ru/search/?text=Биробиджан,https://ru.wikipedia.org/wiki/Биробиджан,https://upload.wikimedia.org/wikipedia/ru/3/31/%D0%91%D0%B8%D1%80%D0%BE%D0%B1%D0%B8%D0%B4%D0%B6%D0%B0%D0%BD%2C_%D1%83%D0%BB_%D0%A8%D0%BE%D0%BB%D0%BE%D0%BC-%D0%90%D0%BB%D0%B5%D0%B9%D1%85%D0%B5%D0%BC%D0%B0.JPG,https://www.openstreetmap.org/search?query=Биробиджан,48.8,132.95
71,б,Белово,71240,https://www.google.com/search?q=Белово,https://yandex.ru/search/?text=Белово,https://ru.wikipedia.org/wiki/Белово,https://upload.wikimedia.org/wikipedia/commons/e/e1/City_Hall_Belovo_5254.jpg,https://www.openstreetmap.org/search?query=Белово,55.04,77.51
72,б,Буйнакск,65658,https://www.google.com/search?q=Буйнакск,https://yandex.ru/search/?text=Буйнакск,https://ru.wikipedia.org/wiki/Буйнакск,https://upload.wikimedia.org/wikipedia/commons/e/e8/%D0%97%D0%B8%D0%BC%D0%BD%D0%B8%D0%B9_%D0%91%D1%83%D0%B9%D0%BD%D0%B0%D0%BA%D1%81%D0%BA.jpg,https://www.openstreetmap.org/search?query=Буйнакск,42.8256,47.1228
73,б,Белогорск,65315,https://www.google.com/search?q=Белогорск,https://yandex.ru/search/?text=Белогорск,https://ru.wikipedia.org/w/index.php?search=Белогорск,,https://www.openstreetmap.org/search?query=Белогорск,50.9158,128.4611
74,б,Белорецк,64921,https://www.google.com/search?q=Белорецк,https://yandex.ru/search/?text=Белорецк,https://ru.wikipedia.org/wiki/Белорецк,https://upload.wikimedia.org/wikipedia/commons/c/cb/Beloret_square.jpg,https://www.openstreetmap.org/search?query=Белорецк,53.96,58.39
75,б,Будённовск,61329,https://www.google.com/search?q=Будённовск,https://yandex.ru/search/?text=Будённовск,https://ru.wikipedia.org/wiki/Будённовск,https://upload.wikimedia.org/wikipedia/commons/d/dc/%D0%90%D0%B4%D0%BC%D0%B8%D0%BD%D0%B8%D1%81%D1%82%D1%80%D0%B0%D1%86%D0%B8%D1%8F_%D0%B3.%D0%91%D1%83%D0%B4%D0%B5%D0%BD%D0%BD%D0%BE%D0%B2%D1%81%D0%BA%D0%B0.jpg,https://www.openstreetmap.org/search?query=Будённовск,44.7839,44.1658
76,б,Борисоглебск,59864,https://www.google.com/search?q=Борисоглебск,https://yandex.ru/search/?text=Борисоглебск,https://ru.wikipedia.org/wiki/Борисоглебск,https://upload.wikimedia.org/wikipedia/commons/6/69/Rathaus_der_Stadt_Borissoglebsk.jpg,https://www.openstreetmap.org/search?query=Борисоглебск,51.3686,42.0906
77,б,Белебей,59229,https://www.google.com/search?q=Белебей,https://yandex.ru/search/?text=Белебей,https://ru.wikipedia.org/wiki/Белебей,https://upload.wikimedia.org/wikipedia/commons/8/88/%D0%9F%D0%B0%D0%BD%D0%BE%D1%80%D0%B0%D0%BC%D0%B0_%D0%B3.%D0%91%D0%B5%D0%BB%D0%B5%D0%B1%D0%B5%D0%B9-1.04.2015.jpg,https://www.openstreetmap.org/search?query=Белебей,54.11,54.11
78,б,Березовский,59030,https://www.google.com/search?q=Березовский,https://yandex.ru/search/?text=Березовский,https://ru.wikipedia.org/w/index.php?search=Березовский,,https://www.openstreetmap.org/search?query=Березовский,45.47,43.33
79,б,Белореченск,51590,https://www.google.com/search?q=Белореченск,https://yandex.ru/search/?text=Белореченск,https://ru.wikipedia.org/wiki/Белореченск,https://upload.wikimedia.org/wikipedia/commons/4/46/%D0%A6%D0%B5%D0%BD%D1%82%D1%80%D0%B0%D0%BB%D1%8C%D0%BD%D0%B0%D1%8F_%D0%BF%D0%BB%D0%BE%D1%89%D0%B0%D0%B4%D1%8C._%D0%A4%D0%BE%D1%82%D0%BE_%D0%92%D0%B8%D0%BA%D1%82%D0%BE%D1%80%D0%B0_%D0%91%D0%B5%D0%BB%D0%BE%D1%83%D1%81%D0%BE%D0%B2%D0%B0._-_panoramio_%288%29.jpg,https://www.openstreetmap.org/search?query=Белореченск,58.77,52.29
80,б,Боровичи,49012,https://www.google.com/search?q=Боровичи,https://yandex.ru/search/?text=Боровичи,https://ru.wikipedia.org/wiki/Боровичи,https://upload.wikimedia.org/wikipedia/commons/c/c1/%D0%96%D0%B5%D0%BB%D0%B5%D0%B7%D0%BD%D0%BE%D0%B4%D0%BE%D1%80%D0%BE%D0%B6%D0%BD%D1%8B%D0%B9_%D0%B2%D0%BE%D0%BA%D0%B7%D0%B0%D0%BB%2C_%D0%BF%D1%80%D0%B8%D0%B2%D0%BE%D0%BA%D0%B7%D0%B0%D0%BB%D1%8C%D0%BD%D0%B0%D1%8F_%D0%BF%D0%BB%D0%BE%D1%89%D0%B0%D0%B4%D1%8C..jpg,https://www.openstreetmap.org/search?query=Боровичи,55.0553,62.5694
81,б,Бугуруслан,48546,https://www.google.com/search?q=Бугуруслан,https://yandex.ru/search/?text=Бугуруслан,https://ru.wikipedia.org/wiki/Бугуруслан,,https://www.openstreetmap.org/search?query=Бугуруслан,53.65,52.4333
82,б,Балахна,48520,https://www.google.com/search?q=Балахна,https://yandex.ru/search/?text=Балахна,https://ru.wikipedia.org/wiki/Балахна,https://upload.wikimedia.org/wikipedia/commons/5/5d/%D0%A0%D0%BE%D1%81%D1%81%D0%B8%D1%8F%2C_%D0%9D%D0%B8%D0%B6%D0%B5%D0%B3%D0%BE%D1%80%D0%BE%D0%B4%D1%81%D0%BA%D0%B0%D1%8F_%D0%BE%D0%B1%D0%BB%D0%B0%D1%81%D1%82%D1%8C%2C_%D0%91%D0%B0%D0%BB%D0%B0%D1%85%D0%BD%D0%B0%2C_%D0%BF%D0%B0%D0%BC%D1%8F%D1%82%D0%BD%D0%B8%D0%BA_%D0%9A%D1%83%D0%B7%D1%8C%D0%BC%D0%B5_%D0%9C%D0%B8%D0%BD%D0%B8%D0%BD%D1%83%2C_10-52_09.05.2006_-_panoramio.jpg,https://www.openstreetmap.org/search?query=Балахна,52.28,38.85
83,б,Бирск,48388,https://www.google.com/search?q=Бирск,https://yandex.ru/search/?text=Бирск,https://ru.wikipedia.org/wiki/Бирск,https://upload.wikimedia.org/wikipedia/commons/0/09/Birsklcollage.jpg,https://www.openstreetmap.org/search?query=Бирск,55.4211,55.5428
84,б,Белая Калитва,39293,https://www.google.com/search?q=Белая+Калитва,https://yandex.ru/search/?text=Белая+Калитва,https://ru.wikipedia.org/wiki/Белая_Калитва,https://upload.wikimedia.org/wikipedia/commons/6/65/Belaya_Kalitva-Stela.jpg,https://www.openstreetmap.org/search?query=Белая Калитва,48.17,40.78
85,б,Большой Камень,39096,https://www.google.com/search?q=Большой+Камень,https://yandex.ru/search/?text=Большой+Камень,https://ru.wikipedia.org/wiki/Большой_Камень,https://upload.wikimedia.org/wikipedia/commons/0/08/Bolshoy_Kamen_view_1.JPG,https://www.openstreetmap.org/search?query=Большой Камень,62.4333,66.3
86,б,Баксан,38474,https://www.google.com/search?q=Баксан,https://yandex.ru/search/?text=Баксан,https://ru.wikipedia.org/wiki/Баксан_(город),https://upload.wikimedia.org/wikipedia/commons/0/06/%D0%91%D0%B0%D0%BA%D1%81%D0%B0%D0%BD%D1%89.jpg,https://www.openstreetmap.org/search?query=Баксан,43.6853,43.5364
87,б,Беслан,37371,https://www.google.com/search?q=Беслан,https://yandex.ru/search/?text=Беслан,https://ru.wikipedia.org/wiki/Беслан,https://upload.wikimedia.org/wikipedia/commons/9/9f/Beslan_train_station.JPG,https://www.openstreetmap.org/search?query=Беслан,43.1919,44.5388
88,б,Благовещенск,34771,https://www.google.com/search?q=Благовещенск,https://yandex.ru/search/?text=Благовещенск,https://ru.wikipedia.org/wiki/Благовещенск,https://upload.wikimedia.org/wikipedia/commons/6/60/%D0%92%D0%B8%D0%BA%D0%B8_%D0%B1%D0%BB%D0%B3.png,https://www.openstreetmap.org/search?query=Благовещенск,55.035,55.9781
89,б,Богородск,33756,https://www.google.com/search?q=Богородск,https://yandex.ru/search/?text=Богородск,https://ru.wikipedia.org/wiki/Богородск,https://upload.wikimedia.org/wikipedia/commons/e/ee/Red_Square.jpg,https://www.openstreetmap.org/search?query=Богородск,56.1033,43.5158
90,б,Балтийск,33658,https://www.google.com/search?q=Балтийск,https://yandex.ru/search/?text=Балтийск,https://ru.wikipedia.org/wiki/Балтийск,https://upload.wikimedia.org/wikipedia/commons/9/9f/BaltiyskPillau_05-2017_img07_aerial_photo.jpg,https://www.openstreetmap.org/search?query=Балтийск,54.7,19.93
91,б,Богородицк,30433,https://www.google.com/search?q=Богородицк,https://yandex.ru/search/?text=Богородицк,https://ru.wikipedia.org/wiki/Богородицк,https://upload.wikimedia.org/wikipedia/commons/1/16/Palace_of_the_Bobrinsky_family.jpg,https://www.openstreetmap.org/search?query=Богородицк,53.7728,38.1217
92,б,Благодарный,30399,https://www.google.com/search?q=Благодарный,https://yandex.ru/search/?text=Благодарный,https://ru.wikipedia.org/wiki/Благодарный,https://upload.wikimedia.org/wikipedia/commons/5/58/Flag_of_Blagodarnyi.gif,https://www.openstreetmap.org/search?query=Благодарный,45.0978,43.4364
93,б,Богданович,29294,https://www.google.com/search?q=Богданович,https://yandex.ru/search/?text=Богданович,https://ru.wikipedia.org/wiki/Богданович_(город),,https://www.openstreetmap.org/search?query=Богданович,56.7803,62.0494
94,б,Борзя,29225,https://www.google.com/search?q=Борзя,https://yandex.ru/search/?text=Борзя,https://ru.wikipedia.org/wiki/Борзя,https://upload.wikimedia.org/wikipedia/commons/7/77/%D0%9C%D0%B5%D0%BC%D0%BE%D1%80%D0%B8%D0%B0%D0%BB_%D0%B2_%D0%91%D0%BE%D1%80%D0%B7%D0%B5.jpg,https://www.openstreetmap.org/search?query=Борзя,50.3833,116.5167
95,б,Барабинск,28704,https://www.google.com/search?q=Барабинск,https://yandex.ru/search/?text=Барабинск,https://ru.wikipedia.org/wiki/Барабинск,https://upload.wikimedia.org/wikipedia/commons/f/f0/Barabinsk%2C_Russia_%2811442718515%29.jpg,https://www.openstreetmap.org/search?query=Барабинск,55.35,78.35
96,б,Бахчисарай,26680,https://www.google.com/search?q=Бахчисарай,https://yandex.ru/search/?text=Бахчисарай,https://ru.wikipedia.org/wiki/Бахчисарай,https://upload.wikimedia.org/wikipedia/commons/c/c1/Baht%C5%A1isarai-Khaani_palee_Krimmis.jpg,https://www.openstreetmap.org/search?query=Бахчисарай,58.014965,56.246723
97,б,Балабаново,25574,https://www.google.com/search?q=Балабаново,https://yandex.ru/search/?text=Балабаново,https://ru.wikipedia.org/wiki/Балабаново,https://upload.wikimedia.org/wikipedia/commons/4/4d/%D0%91%D0%B0%D0%BB%D0%B0%D0%B1%D0%B0%D0%BD%D0%BE%D0%B2%D0%BE%D0%BF.webp,https://www.openstreetmap.org/search?query=Балабаново,55.17,36.65
98,б,Бутурлиновка,24007,https://www.google.com/search?q=Бутурлиновка,https://yandex.ru/search/?text=Бутурлиновка,https://ru.wikipedia.org/wiki/Бутурлиновка,https://upload.wikimedia.org/wikipedia/commons/c/c1/%D0%91%D1%83%D1%82%D1%83%D1%80%D0%BB%D0%B8%D0%BD%D0%BE%D0%B2%D0%BA%D0%B0%2C%D1%86%D0%B5%D0%BD%D1%82%D1%80_%D0%B3%D0%BE%D1%80%D0%BE%D0%B4%D0%B0.jpg,https://www.openstreetmap.org/search?query=Бутурлиновка,50.8239,40.6092
99,б,Буй,23233,https://www.google.com/search?q=Буй+город,https://yandex.ru/search/?text=Буй+город,https://ru.wikipedia.org/wiki/Буй_(город),https://upload.wikimedia.org/wikipedia/commons/a/a4/%D0%9F%D0%B0%D0%BD%D0%BE%D1%80%D0%B0%D0%BC%D0%B0_%D0%91%D1%83%D1%8F.jpg,https://www.openstreetmap.org/search?query=Буй,50.6383,107.9789
100,б,Бронницы,22531,https://www.google.com/search?q=Бронницы,https://yandex.ru/search/?text=Бронницы,https://ru.wikipedia.org/wiki/Бронницы,https://upload.wikimedia.org/wikipedia/commons/b/bf/Bronnitsy_Foot_Bridge_Mar_2010_01.jpg,https://www.openstreetmap.org/search?query=Бронницы,55.4194,38.2708
101,б,Бавлы,22157,https://www.google.com/search?q=Бавлы,https://yandex.ru/search/?text=Бавлы,https://ru.wikipedia.org/wiki/Бавлы,https://upload.wikimedia.org/wikipedia/commons/0/00/%D0%A5%D0%BE%D0%BB%D0%BC_%D0%B8_%D0%B3%D0%BE%D1%80%D0%BE%D0%B4.jpg,https://www.openstreetmap.org/search?query=Бавлы,54.38,53.28
102,б,Бологое,20498,https://www.google.com/search?q=Бологое,https://yandex.ru/search/?text=Бологое,https://ru.wikipedia.org/wiki/Бологое,https://upload.wikimedia.org/wikipedia/commons/b/bf/Bologoe_asv2018-08_img23.jpg,https://www.openstreetmap.org/search?query=Бологое,53.8525,73.9794
103,б,Бежецк,20418,https://www.google.com/search?q=Бежецк,https://yandex.ru/search/?text=Бежецк,https://ru.wikipedia.org/wiki/Бежецк,https://upload.wikimedia.org/wikipedia/commons/c/c9/%D0%A1%D0%BF%D0%B0%D1%81%D1%81%D0%BA%D0%B0%D1%8F_%D1%86%D0%B5%D1%80%D0%BA%D0%BE%D0%B2%D1%8C._%D0%91%D0%B5%D0%B6%D0%B5%D1%86%D0%BA.jpg,https://www.openstreetmap.org/search?query=Бежецк,57.77,36.69
104,б,Буинск,20416,https://www.google.com/search?q=Буинск,https://yandex.ru/search/?text=Буинск,https://ru.wikipedia.org/w/index.php?search=Буинск,,https://www.openstreetmap.org/search?query=Буинск,54.95,48.2833
105,б,Бобров,20007,https://www.google.com/search?q=Бобров,https://yandex.ru/search/?text=Бобров,https://ru.wikipedia.org/wiki/Бобров_(город),https://upload.wikimedia.org/wikipedia/commons/f/fb/%D0%91%D0%BE%D0%B1%D1%80%D0%BE%D0%B2._%D0%9A%D1%83%D0%BF%D0%B5%D1%87%D0%B5%D1%81%D0%BA%D0%B8%D0%B9_%D0%BE%D1%81%D0%BE%D0%B1%D0%BD%D1%8F%D0%BA.JPG,https://www.openstreetmap.org/search?query=Бобров,51.0961,40.0333
106,б,Белоярский,19622,https://www.google.com/search?q=Белоярский,https://yandex.ru/search/?text=Белоярский,https://ru.wikipedia.org/wiki/Белоярский_(город),https://upload.wikimedia.org/wikipedia/commons/6/6b/%D0%A5%D1%80%D0%B0%D0%BC%D0%B5_%D0%BF%D1%80%D0%B5%D0%BF%D0%BE%D0%B4%D0%BE%D0%B1%D0%BD%D0%BE%D0%B3%D0%BE_%D0%A1%D0%B5%D1%80%D0%B0%D1%84%D0%B8%D0%BC%D0%B0_%D0%A1%D0%B0%D1%80%D0%BE%D0%B2%D1%81%D0%BA%D0%BE%D0%B3%D0%BE_%D0%B2_%D0%B3%D0%BE%D1%80%D0%BE%D0%B4%D0%B5_%D0%91%D0%B5%D0%BB%D0%BE%D1%8F%D1%80%D1%81%D0%BA%D0%B8%D0%B9.jpg,https://www.openstreetmap.org/search?query=Белоярский,63.71,66.67
107,б,Боготол,19576,https://www.google.com/search?q=Боготол,https://yandex.ru/search/?text=Боготол,https://ru.wikipedia.org/wiki/Боготол,https://upload.wikimedia.org/wikipedia/commons/1/1e/%D0%91%D0%BE%D0%B3%D0%BE%D1%82%D0%BE%D0%BB_%D1%83%D0%BB_%D0%9A%D0%B8%D1%80%D0%BE%D0%B2%D0%B01.JPG,https://www.openstreetmap.org/search?query=Боготол,56.1717,89.5861
108,б,Бакал,18706,https://www.google.com/search?q=Бакал,https://yandex.ru/search/?text=Бакал,https://ru.wikipedia.org/wiki/Бакал,https://upload.wikimedia.org/wikipedia/commons/9/94/Bakal_-_sign_of_town.jpg,https://www.openstreetmap.org/search?query=Бакал,54.94,58.8
109,б,Баймак,17179,https://www.google.com/search?q=Баймак,https://yandex.ru/search/?text=Баймак,https://ru.wikipedia.org/wiki/Баймак,,https://www.openstreetmap.org/search?query=Баймак,52.59,58.32
110,б,Бикин,16104,https://www.google.com/search?q=Бикин,https://yandex.ru/search/?text=Бикин,https://ru.wikipedia.org/wiki/Бикин_(город),https://upload.wikimedia.org/wikipedia/ru/c/c6/%D0%93%D0%BE%D1%80%D0%BE%D0%B4_%D0%91%D0%B8%D0%BA%D0%B8%D0%BD.jpg,https://www.openstreetmap.org/search?query=Бикин,46.8161,134.26
111,б,Бородино,16055,https://www.google.com/search?q=Бородино,https://yandex.ru/search/?text=Бородино,https://ru.wikipedia.org/wiki/Бородино_(город),https://upload.wikimedia.org/wikipedia/commons/b/bd/Church_of_St._Sergius_of_Radonezh_%28Borodino%29.tiff,https://www.openstreetmap.org/search?query=Бородино,55.8728,94.9625
112,б,Барыш,15541,https://www.google.com/search?q=Барыш,https://yandex.ru/search/?text=Барыш,https://ru.wikipedia.org/wiki/Барыш_(город),,https://www.openstreetmap.org/search?query=Барыш,53.64,47.12
113,б,Болотное,15478,https://www.google.com/search?q=Болотное,https://yandex.ru/search/?text=Болотное,https://ru.wikipedia.org/wiki/Болотное,https://upload.wikimedia.org/wikipedia/commons/a/a1/Bolotnoje1_vokzal.JPG,https://www.openstreetmap.org/search?query=Болотное,55.6717,84.3981
114,б,Белокуриха,15192,https://www.google.com/search?q=Белокуриха,https://yandex.ru/search/?text=Белокуриха,https://ru.wikipedia.org/wiki/Белокуриха,https://upload.wikimedia.org/wikipedia/commons/5/5e/%D0%91%D0%B5%D0%BB%D0%BE%D0%BA%D1%83%D1%80%D0%B8%D1%85%D0%B0%2C_%D0%90%D0%BB%D1%82%D0%B0%D0%B9%D1%81%D0%BA%D0%B8%D0%B9_%D0%BA%D1%80%D0%B0%D0%B9._%D0%92%D0%B8%D0%B4_%D0%BD%D0%B0_%D0%B3%D0%BE%D1%80%D0%BE%D0%B4_03.jpg,https://www.openstreetmap.org/search?query=Белокуриха,51.9959,84.9896
115,б,Бокситогорск,15091,https://www.google.com/search?q=Бокситогорск,https://yandex.ru/search/?text=Бокситогорск,https://ru.wikipedia.org/wiki/Бокситогорск,https://upload.wikimedia.org/wikipedia/commons/f/f0/Boksitogorsk_Lenin_Square.jpg,https://www.openstreetmap.org/search?query=Бокситогорск,59.4753,33.8508
116,б,Белев,12597,https://www.google.com/search?q=Белев,https://yandex.ru/search/?text=Белев,https://ru.wikipedia.org/wiki/Белев,https://upload.wikimedia.org/wikipedia/commons/4/4c/Belyov_in_1900s.jpeg,https://www.openstreetmap.org/search?query=Белев,53.81,36.13
117,б,Байкальск,12534,https://www.google.com/search?q=Байкальск,https://yandex.ru/search/?text=Байкальск,https://ru.wikipedia.org/wiki/Байкальск,https://upload.wikimedia.org/wikipedia/commons/8/87/Street_in_Baikalsk.jpg,https://www.openstreetmap.org/search?query=Байкальск,51.5,104.14
118,б,Бодайбо,11982,https://www.google.com/search?q=Бодайбо,https://yandex.ru/search/?text=Бодайбо,https://ru.wikipedia.org/wiki/Бодайбо_(город),https://upload.wikimedia.org/wikipedia/commons/7/74/%D0%91%D0%BE%D0%B4%D0%B0%D0%B9%D0%B1%D0%BE_%D0%B3%D0%BB%D0%B0%D0%B2%D0%BD%D0%B0%D1%8F_%D1%83%D0%BB%D0%B8%D1%86%D0%B0.jpg,https://www.openstreetmap.org/search?query=Бодайбо,57.8506,114.1933
119,б,Бабаево,11521,https://www.google.com/search?q=Бабаево,https://yandex.ru/search/?text=Бабаево,https://ru.wikipedia.org/wiki/Бабаево,https://upload.wikimedia.org/wikipedia/commons/e/e8/%D0%96%D0%B5%D0%BB%D0%B5%D0%B7%D0%BD%D0%BE%D0%B4%D0%BE%D1%80%D0%BE%D0%B6%D0%BD%D0%B0%D1%8F_%D1%81%D1%82%D0%B0%D0%BD%D1%86%D0%B8%D1%8F_%D0%91%D0%B0%D0%B1%D0%B0%D0%B5%D0%B2%D0%BE_%D0%BD%D0%B0_%D0%BB%D0%B8%D0%BD%D0%B8%D0%B8_%D0%92%D0%BE%D0%BB%D0%BE%D0%B3%D0%B4%D0%B0_%E2%80%94_%D0%A1%D0%B0%D0%BD%D0%BA%D1%82-%D0%9F%D0%B5%D1%82%D0%B5%D1%80%D0%B1%D1%83%D1%80%D0%B3.JPG,https://www.openstreetmap.org/search?query=Бабаево,56.1,40.08
120,б,Богучар,11048,https://www.google.com/search?q=Богучар,https://yandex.ru/search/?text=Богучар,https://ru.wikipedia.org/wiki/Богучар,https://upload.wikimedia.org/wikipedia/commons/7/7e/%D0%91%D0%BE%D0%B3%D1%83%D1%87%D0%B0%D1%80%D0%A3%D0%BF%D1%80%D0%B0%D0%B2%D0%B0%D0%97%D0%B5%D0%BC%D1%81%D0%BA%D0%B0%D1%8F_DSC_4712.jpg,https://www.openstreetmap.org/search?query=Богучар,49.9356,40.5578
121,б,Болхов,10884,https://www.google.com/search?q=Болхов,https://yandex.ru/search/?text=Болхов,https://ru.wikipedia.org/wiki/Болхов,https://upload.wikimedia.org/wikipedia/commons/f/f4/Imgp0669-vid_iz-za_nugri.jpg,https://www.openstreetmap.org/search?query=Болхов,53.45,36.0167
122,б,Балей,10732,https://www.google.com/search?q=Балей,https://yandex.ru/search/?text=Балей,https://ru.wikipedia.org/wiki/Балей,,https://www.openstreetmap.org/search?query=Балей,51.6,116.63
123,б,Боровск,10337,https://www.google.com/search?q=Боровск,https://yandex.ru/search/?text=Боровск,https://ru.wikipedia.org/wiki/Боровск,https://upload.wikimedia.org/wikipedia/commons/d/dd/Borovsk.jpg,https://www.openstreetmap.org/search?query=Боровск,55.2064,36.4861
124,б,Белоусово,10186,https://www.google.com/search?q=Белоусово,https://yandex.ru/search/?text=Белоусово,https://ru.wikipedia.org/wiki/Белоусово_(город),https://upload.wikimedia.org/wikipedia/commons/6/6a/Belousovo%2C_Kaluga_Oblast%2C_Russia_-_panoramio.jpg,https://www.openstreetmap.org/search?query=Белоусово,54.79,61.95
125,б,Белая Холуница,10100,https://www.google.com/search?q=Белая+Холуница,https://yandex.ru/search/?text=Белая+Холуница,https://ru.wikipedia.org/wiki/Белая_Холуница,https://upload.wikimedia.org/wikipedia/commons/5/54/BH-DK.JPG,https://www.openstreetmap.org/search?query=Белая Холуница,58.84,50.85
126,б,Беломорск,9199,https://www.google.com/search?q=Беломорск,https://yandex.ru/search/?text=Беломорск,https://ru.wikipedia.org/wiki/Беломорск,https://upload.wikimedia.org/wikipedia/commons/3/30/Belomorsk_Zavodskaya_storona.jpg,https://www.openstreetmap.org/search?query=Беломорск,64.52,34.76
127,б,Белозерск,9011,https://www.google.com/search?q=Белозерск,https://yandex.ru/search/?text=Белозерск,https://ru.wikipedia.org/wiki/Белозерск,https://upload.wikimedia.org/wikipedia/commons/8/89/%D0%A6%D0%B5%D1%80%D0%BA%D0%BE%D0%B2%D1%8C_%D0%92%D1%81%D0%B5%D0%BC%D0%B8%D0%BB%D0%BE%D1%81%D1%82%D0%BB%D0%B8%D0%B2%D0%BE%D0%B3%D0%BE_%D0%A1%D0%BF%D0%B0%D1%81%D0%B0_%28%D0%B2%D0%B8%D0%B4_%D1%81_%D0%B2%D0%B0%D0%BB%D0%B0%29.JPG,https://www.openstreetmap.org/search?query=Белозерск,60.03,37.8
128,б,Болохово,8828,https://www.google.com/search?q=Болохово,https://yandex.ru/search/?text=Болохово,https://ru.wikipedia.org/wiki/Болохово,https://upload.wikimedia.org/wikipedia/commons/e/eb/Bolokhovo_-_Mapillary_%28xcvC_LrI6Wiy7ZX7lyuR_w%29.jpg,https://www.openstreetmap.org/search?query=Болохово,54.0936,37.8183
129,б,Бирюсинск,8416,https://www.google.com/search?q=Бирюсинск,https://yandex.ru/search/?text=Бирюсинск,https://ru.wikipedia.org/wiki/Бирюсинск,https://upload.wikimedia.org/wikipedia/commons/2/2a/Birjusinsk.jpg,https://www.openstreetmap.org/search?query=Бирюсинск,55.9603,97.8144
130,б,Болгар,8410,https://www.google.com/search?q=Болгар,https://yandex.ru/search/?text=Болгар,https://ru.wikipedia.org/wiki/Болгар,https://upload.wikimedia.org/wikipedia/commons/7/79/Bolgar_mosque.jpeg,https://www.openstreetmap.org/search?query=Болгар,54.95,49.0667
131,б,Белинский,7522,https://www.google.com/search?q=Белинский,https://yandex.ru/search/?text=Белинский,https://ru.wikipedia.org/wiki/Белинский,https://upload.wikimedia.org/wikipedia/commons/3/36/Vissarion_Belinsky_by_K_Gorbunov_1843.jpg,https://www.openstreetmap.org/search?query=Белинский,52.96,43.41
132,б,Бирюч,7484,https://www.google.com/search?q=Бирюч,https://yandex.ru/search/?text=Бирюч,https://ru.wikipedia.org/wiki/Бирюч_(город),https://upload.wikimedia.org/wikipedia/commons/c/c8/Biryuch_boulevard.jpg,https://www.openstreetmap.org/search?query=Бирюч,51.3436,40.7136
133,б,Багратионовск,6388,https://www.google.com/search?q=Багратионовск,https://yandex.ru/search/?text=Багратионовск,https://ru.wikipedia.org/wiki/Багратионовск,https://upload.wikimedia.org/wikipedia/commons/7/74/%D0%92%D0%B5%D1%81%D0%BD%D0%B0._%D0%A6%D0%B2%D0%B5%D1%82%D1%91%D1%82_%D0%B1%D0%BE%D1%8F%D1%80%D1%8B%D1%88%D0%BD%D0%B8%D0%BA_Paul%27s_Scarlet..JPG,https://www.openstreetmap.org/search?query=Багратионовск,54.38,20.64
134,б,Билибино,5777,https://www.google.com/search?q=Билибино,https://yandex.ru/search/?text=Билибино,https://ru.wikipedia.org/wiki/Билибино,https://upload.wikimedia.org/wikipedia/commons/0/05/Bilibino_-_aerial_view.jpg,https://www.openstreetmap.org/search?query=Билибино,68.05,166.3333
135,б,Бабушкин,4454,https://www.google.com/search?q=Бабушкин,https://yandex.ru/search/?text=Бабушкин,https://ru.wikipedia.org/w/index.php?search=Бабушкин,,https://www.openstreetmap.org/search?query=Бабушкин,51.71,105.86
136,б,Белый,3090,https://www.google.com/search?q=Белый,https://yandex.ru/search/?text=Белый,https://ru.wikipedia.org/wiki/Белый_(город),https://upload.wikimedia.org/wikipedia/commons/4/41/%D0%93%D0%B8%D0%BC%D0%BD%D0%B0%D0%B7%D0%B8%D1%8F_%D0%B6%D0%B5%D0%BD%D1%81%D0%BA%D0%B0%D1%8F_%28%D0%A2%D0%B2%D0%B5%D1%80%D1%81%D0%BA%D0%B0%D1%8F_%D0%BE%D0%B1%D0%BB%D0%B0%D1%81%D1%82%D1%8C%2C_%D0%91%D0%B5%D0%BB%D1%8B%D0%B9%2C_%D1%83%D0%BB%D0%B8%D1%86%D0%B0_%D0%9B%D0%B5%D0%BD%D0%B8%D0%BD%D0%B0%2C_14%29.jpg,https://www.openstreetmap.org/search?query=Белый,46.29,39.6
137,в,Воронеж,1058261,https://www.google.com/search?q=Воронеж,https://yandex.ru/search/?text=Воронеж,https://ru.wikipedia.org/wiki/Воронеж,https://upload.wikimedia.org/wikipedia/commons/9/91/%D0%93%D0%BB%D0%B0%D0%B2%D0%BD%D0%BE%D0%B5_%D0%B7%D0%B4%D0%B0%D0%BD%D0%B8%D0%B5_%D1%83%D0%BF%D1%80%D0%B0%D0%B2%D0%BB%D0%B5%D0%BD%D0%B8%D1%8F_%D0%AE%D0%92%D0%96%D0%94.jpg,https://www.openstreetmap.org/search?query=Воронеж,51.6664,39.17
138,в,Волгоград,1008998,https://www.google.com/search?q=Волгоград,https://yandex.ru/search/?text=Волгоград,https://ru.wikipedia.org/wiki/Волгоград,https://upload.wikimedia.org/wikipedia/commons/8/88/Volgograd_Montage_2016.png,https://www.openstreetmap.org/search?query=Волгоград,48.8047,44.5858
139,в,Владивосток,606561,https://www.google.com/search?q=Владивосток,https://yandex.ru/search/?text=Владивосток,https://ru.wikipedia.org/wiki/Владивосток,https://upload.wikimedia.org/wikipedia/commons/1/1a/Vladivostok_collage2.png,https://www.openstreetmap.org/search?query=Владивосток,43.1056,131.8735
140,в,Владимир,356937,https://www.google.com/search?q=Владимир,https://yandex.ru/search/?text=Владимир,https://ru.wikipedia.org/wiki/Владимир_(город),https://upload.wikimedia.org/wikipedia/commons/3/38/%D0%92%D0%BB%D0%B0%D0%B4%D0%B8%D0%BC%D0%B8%D1%80-%D0%BA%D0%BE%D0%BB%D0%BB%D0%B0%D0%B61.jpg,https://www.openstreetmap.org/search?query=Владимир,53.4714,102.6547
141,в,Волжский,323906,https://www.google.com/search?q=Волжский,https://yandex.ru/search/?text=Волжский,https://ru.wikipedia.org/wiki/Волжский,https://upload.wikimedia.org/wikipedia/commons/f/f3/Vlz_newpart.jpg,https://www.openstreetmap.org/search?query=Волжский,46.9708,47.5422
142,в,Вологда,317426,https://www.google.com/search?q=Вологда,https://yandex.ru/search/?text=Вологда,https://ru.wikipedia.org/wiki/Вологда,https://upload.wikimedia.org/wikipedia/commons/c/cd/Sophia_panorama_2.jpg,https://www.openstreetmap.org/search?query=Вологда,59.2167,39.9
143,в,Владикавказ,303597,https://www.google.com/search?q=Владикавказ,https://yandex.ru/search/?text=Владикавказ,https://ru.wikipedia.org/wiki/Владикавказ,https://upload.wikimedia.org/wikipedia/commons/2/2e/%D0%92%D0%BB%D0%B0%D0%B4%D0%B8%D0%BA%D0%B0%D0%B2%D0%BA%D0%B0%D0%B7._%D0%93%D0%BE%D1%80%D0%B0_%D0%A1%D1%82%D0%BE%D0%BB%D0%BE%D0%B2%D0%B0%D1%8F.jpg,https://www.openstreetmap.org/search?query=Владикавказ,43.0367,44.6678
144,в,Великий Новгород,224936,https://www.google.com/search?q=Великий+Новгород,https://yandex.ru/search/?text=Великий+Новгород,https://ru.wikipedia.org/wiki/Великий_Новгород,https://upload.wikimedia.org/wikipedia/commons/8/86/Veliky_Novgorod_montage_%282015%29.png,https://www.openstreetmap.org/search?query=Великий Новгород,58.5167,31.2833
145,в,Волгодонск,171406,https://www.google.com/search?q=Волгодонск,https://yandex.ru/search/?text=Волгодонск,https://ru.wikipedia.org/wiki/Волгодонск,https://upload.wikimedia.org/wikipedia/commons/2/28/%D0%92%D0%BE%D0%BB%D0%B3%D0%BE%D0%B4%D0%BE%D0%BD%D1%81%D0%BA._%D0%A3%D0%BB%D0%B8%D1%86%D0%B0_%D0%9C%D0%BE%D1%80%D1%81%D0%BA%D0%B0%D1%8F.JPG,https://www.openstreetmap.org/search?query=Волгодонск,47.5136,42.1514
146,в,Воткинск,97244,https://www.google.com/search?q=Воткинск,https://yandex.ru/search/?text=Воткинск,https://ru.wikipedia.org/wiki/Воткинск,https://upload.wikimedia.org/wikipedia/commons/3/36/Annunciation_Cathedral%2C_Votkinsk-2.jpg,https://www.openstreetmap.org/search?query=Воткинск,57.0442,53.9872
147,в,Воскресенск,92911,https://www.google.com/search?q=Воскресенск,https://yandex.ru/search/?text=Воскресенск,https://ru.wikipedia.org/wiki/Воскресенск,https://upload.wikimedia.org/wikipedia/commons/0/05/Voskresenskpanorama.jpg,https://www.openstreetmap.org/search?query=Воскресенск,58.5786,55.2314
148,в,Великие Луки,90922,https://www.google.com/search?q=Великие+Луки,https://yandex.ru/search/?text=Великие+Луки,https://ru.wikipedia.org/wiki/Великие_Луки,https://upload.wikimedia.org/wikipedia/ru/2/2f/Fortress_Obelisk_Velikiye_Luki.jpg,https://www.openstreetmap.org/search?query=Великие Луки,56.34,30.5347
149,в,Видное,77018,https://www.google.com/search?q=Видное,https://yandex.ru/search/?text=Видное,https://ru.wikipedia.org/wiki/Видное,https://upload.wikimedia.org/wikipedia/commons/9/96/Vidnoe20100926b.jpg,https://www.openstreetmap.org/search?query=Видное,55.5542,37.7106
150,в,Выборг,75355,https://www.google.com/search?q=Выборг,https://yandex.ru/search/?text=Выборг,https://ru.wikipedia.org/wiki/Выборг,https://upload.wikimedia.org/wikipedia/commons/b/b0/Vyborg_montage_2017.jpg,https://www.openstreetmap.org/search?query=Выборг,58.7084,32.7636
151,в,Всеволожск,74724,https://www.google.com/search?q=Всеволожск,https://yandex.ru/search/?text=Всеволожск,https://ru.wikipedia.org/wiki/Всеволожск,https://upload.wikimedia.org/wikipedia/commons/3/3f/Liferoad.jpg,https://www.openstreetmap.org/search?query=Всеволожск,60.0153,30.6756
152,в,Верхняя Пышма,72688,https://www.google.com/search?q=Верхняя+Пышма,https://yandex.ru/search/?text=Верхняя+Пышма,https://ru.wikipedia.org/wiki/Верхняя_Пышма,https://upload.wikimedia.org/wikipedia/commons/e/ea/Verkhnyaya_Pyshma_Panorama.jpg,https://www.openstreetmap.org/search?query=Верхняя Пышма,56.9667,60.5808
153,в,Вольск,61943,https://www.google.com/search?q=Вольск,https://yandex.ru/search/?text=Вольск,https://ru.wikipedia.org/wiki/Вольск,https://upload.wikimedia.org/wikipedia/commons/c/c9/%D0%A2%D1%80%D0%BE%D0%B8%D1%86%D0%BA%D0%B8%D0%B9_%D1%81%D0%BE%D0%B1%D0%BE%D1%80_%D0%B2_%D0%B3%D0%BE%D1%80%D0%BE%D0%B4%D0%B5_%D0%92%D0%BE%D0%BB%D1%8C%D1%81%D0%BA%D0%B5%2C_%D0%A1%D0%B0%D1%80%D0%B0%D1%82%D0%BE%D0%B2%D1%81%D0%BA%D0%B0%D1%8F_%D0%BE%D0%B1%D0%BB%D0%B0%D1%81%D1%82%D1%8C.jpg,https://www.openstreetmap.org/search?query=Вольск,52.0333,47.3833
154,в,Волжск,53216,https://www.google.com/search?q=Волжск,https://yandex.ru/search/?text=Волжск,https://ru.wikipedia.org/wiki/Волжск,https://upload.wikimedia.org/wikipedia/commons/2/29/%D0%92%D0%BE%D0%BB%D0%B6%D1%81%D0%BA.JPG,https://www.openstreetmap.org/search?query=Волжск,55.8833,48.3333
155,в,Выкса,53010,https://www.google.com/search?q=Выкса,https://yandex.ru/search/?text=Выкса,https://ru.wikipedia.org/wiki/Выкса,https://upload.wikimedia.org/wikipedia/commons/c/cd/Vyksa._Metallurgists_Square.jpg,https://www.openstreetmap.org/search?query=Выкса,55.3175,42.1744
156,в,Воркута,52776,https://www.google.com/search?q=Воркута,https://yandex.ru/search/?text=Воркута,https://ru.wikipedia.org/wiki/Воркута,https://upload.wikimedia.org/wikipedia/commons/c/ca/%D0%90%D0%B4%D0%BC%D0%B8%D0%BD%D0%B8%D1%81%D1%82%D1%80%D0%B0%D1%86%D0%B8%D1%8F_%D0%B3%D0%BE%D1%80%D0%BE%D0%B4%D0%B0_%D0%92%D0%BE%D1%80%D0%BA%D1%83%D1%82%D0%B0_%D0%B8_%D0%B3%D0%BE%D1%81%D1%82%D0%B8%D0%BD%D0%B8%D1%86%D0%B0_%22%D0%92%D0%BE%D1%80%D0%BA%D1%83%D1%82%D0%B0%22.jpg,https://www.openstreetmap.org/search?query=Воркута,64.7597,62.8483
157,в,Вязьма,52347,https://www.google.com/search?q=Вязьма,https://yandex.ru/search/?text=Вязьма,https://ru.wikipedia.org/wiki/Вязьма,https://upload.wikimedia.org/wikipedia/commons/5/54/Ascension_church%2C_Vyazma.jpg,https://www.openstreetmap.org/search?query=Вязьма,55.205,34.2922
158,в,Вышний Волочек,45481,https://www.google.com/search?q=Вышний+Волочек,https://yandex.ru/search/?text=Вышний+Волочек,https://ru.wikipedia.org/wiki/Вышний_Волочек,https://upload.wikimedia.org/wikipedia/commons/0/09/%D0%92%D1%8B%D1%88%D0%BD%D0%B8%D0%B9_%D0%92%D0%BE%D0%BB%D0%BE%D1%87%D1%91%D0%BA._%D0%91%D0%B5%D1%80%D0%B5%D0%B3_%D0%BE%D0%B7%D0%B5%D1%80%D0%B0..jpg,https://www.openstreetmap.org/search?query=Вышний Волочек,57.5825,34.5572
159,в,Волхов,44256,https://www.google.com/search?q=Волхов,https://yandex.ru/search/?text=Волхов,https://ru.wikipedia.org/wiki/Волхов,https:/wiki/%D0%A4%D0%B0%D0%B9%D0%BB:Veliky_Novgorod_montage_(2015).png,https://www.openstreetmap.org/search?query=Волхов,59.9222,32.3381
160,в,Верхняя Салда,41228,https://www.google.com/search?q=Верхняя+Салда,https://yandex.ru/search/?text=Верхняя+Салда,https://ru.wikipedia.org/wiki/Верхняя_Салда,https://upload.wikimedia.org/wikipedia/commons/8/81/VerkhnyayaSalda_CulturePalace_005_8701.jpg,https://www.openstreetmap.org/search?query=Верхняя Салда,58.0456,60.5533
161,в,Вязники,34521,https://www.google.com/search?q=Вязники,https://yandex.ru/search/?text=Вязники,https://ru.wikipedia.org/wiki/Вязники,https://upload.wikimedia.org/wikipedia/commons/b/b9/Vyazniki_asv2019-05_img02_SovStreet.jpg,https://www.openstreetmap.org/search?query=Вязники,56.25,42.1667
162,в,Валуйки,34159,https://www.google.com/search?q=Валуйки,https://yandex.ru/search/?text=Валуйки,https://ru.wikipedia.org/wiki/Валуйки,https://upload.wikimedia.org/wikipedia/commons/0/0b/%D0%92%D0%B0%D0%BB%D1%83%D0%B9%D1%81%D0%BA%D0%B8%D0%B9_%D0%B8%D1%81%D1%82%D0%BE%D1%80%D0%B8%D0%BA%D0%BE-%D1%85%D1%83%D0%B4%D0%BE%D0%B6%D0%B5%D1%81%D1%82%D0%B2%D0%B5%D0%BD%D0%BD%D1%8B%D0%B9_%D0%BC%D1%83%D0%B7%D0%B5%D0%B9_2012.jpg,https://www.openstreetmap.org/search?query=Валуйки,50.2106,38.1017
163,в,Вичуга,33292,https://www.google.com/search?q=Вичуга,https://yandex.ru/search/?text=Вичуга,https://ru.wikipedia.org/wiki/Вичуга,https://upload.wikimedia.org/wikipedia/commons/d/d6/Ivanovo_Obl_Vichuga_asv2018-08_img11.jpg,https://www.openstreetmap.org/search?query=Вичуга,57.2161,41.9183
164,в,Вятские Поляны,31873,https://www.google.com/search?q=Вятские+Поляны,https://yandex.ru/search/?text=Вятские+Поляны,https://ru.wikipedia.org/wiki/Вятские_Поляны,https://upload.wikimedia.org/wikipedia/commons/b/b3/%D0%92%D0%B8%D0%B4_%D0%BD%D0%B0_%D0%92%D1%8F%D1%82%D1%81%D0%BA%D0%B8%D0%B5_%D0%9F%D0%BE%D0%BB%D1%8F%D0%BD%D1%8B.JPG,https://www.openstreetmap.org/search?query=Вятские Поляны,56.2239,51.0633
165,в,Великий Устюг,31294,https://www.google.com/search?q=Великий+Устюг,https://yandex.ru/search/?text=Великий+Устюг,https://ru.wikipedia.org/wiki/Великий_Устюг,https://upload.wikimedia.org/wikipedia/commons/f/f7/RU_VU_Krasnaya_SpasPreobr-2-brightened.jpg,https://www.openstreetmap.org/search?query=Великий Устюг,60.7644,46.3106
166,в,Верхний Уфалей,26716,https://www.google.com/search?q=Верхний+Уфалей,https://yandex.ru/search/?text=Верхний+Уфалей,https://ru.wikipedia.org/wiki/Верхний_Уфалей,https://upload.wikimedia.org/wikipedia/commons/a/a2/%D0%92%D0%B5%D1%80%D1%85%D0%BD%D0%B8%D0%B9_%D0%A3%D1%84%D0%B0%D0%BB%D0%B5%D0%B9%2C_%D0%B4%D0%BE%D0%BC_%D1%82%D0%BE%D1%80%D0%B3%D0%BE%D0%B2%D1%86%D0%B0_%D0%9A%D0%BE%D1%87%D0%BD%D0%B5%D0%B2%D0%B0.JPG,https://www.openstreetmap.org/search?query=Верхний Уфалей,56.0567,60.2306
167,в,Вельск,22328,https://www.google.com/search?q=Вельск,https://yandex.ru/search/?text=Вельск,https://ru.wikipedia.org/wiki/Вельск,https://upload.wikimedia.org/wikipedia/commons/0/0e/Velsk01.jpg,https://www.openstreetmap.org/search?query=Вельск,61.07,42.0989
168,в,Вилючинск,22223,https://www.google.com/search?q=Вилючинск,https://yandex.ru/search/?text=Вилючинск,https://ru.wikipedia.org/wiki/Вилючинск,https://upload.wikimedia.org/wikipedia/commons/6/69/%D0%92%D0%B8%D0%BB%D1%8E%D1%87%D0%B8%D0%BD%D1%81%D0%BA.JPG,https://www.openstreetmap.org/search?query=Вилючинск,53.1674,155.5291
169,в,Верещагино,21292,https://www.google.com/search?q=Верещагино,https://yandex.ru/search/?text=Верещагино,https://ru.wikipedia.org/wiki/Верещагино,https://upload.wikimedia.org/wikipedia/commons/8/8b/Vereschagino-church.JPG,https://www.openstreetmap.org/search?query=Верещагино,57.8309,54.8621
170,в,Вихоревка,20833,https://www.google.com/search?q=Вихоревка,https://yandex.ru/search/?text=Вихоревка,https://ru.wikipedia.org/wiki/Вихоревка,https://upload.wikimedia.org/wikipedia/commons/8/82/%D0%92%D0%B8%D1%85%D0%BE%D1%80%D0%B5%D0%B2%D0%BA%D0%B0.jpg,https://www.openstreetmap.org/search?query=Вихоревка,56.1211,101.1817
171,в,Волоколамск,18372,https://www.google.com/search?q=Волоколамск,https://yandex.ru/search/?text=Волоколамск,https://ru.wikipedia.org/wiki/Волоколамск,https://upload.wikimedia.org/wikipedia/commons/8/88/Volokolamsk_-_CBD_10.jpg,https://www.openstreetmap.org/search?query=Волоколамск,56.0336,35.9694
172,в,Волгореченск,16276,https://www.google.com/search?q=Волгореченск,https://yandex.ru/search/?text=Волгореченск,https://ru.wikipedia.org/wiki/Волгореченск,https://upload.wikimedia.org/wikipedia/commons/0/0a/Church_in_Volgorechensk.jpg,https://www.openstreetmap.org/search?query=Волгореченск,57.4419,41.1594
173,в,Валдай,13987,https://www.google.com/search?q=Валдай,https://yandex.ru/search/?text=Валдай,https://ru.wikipedia.org/wiki/Валдай,https://upload.wikimedia.org/wikipedia/commons/6/6b/%D0%92%D0%B0%D0%BB%D0%B4%D0%B0%D0%B9_-_Valdai_-_panoramio.jpg,https://www.openstreetmap.org/search?query=Валдай,63.45,35.5167
174,в,Венев,13883,https://www.google.com/search?q=Венев,https://yandex.ru/search/?text=Венев,https://ru.wikipedia.org/wiki/Венев,https://upload.wikimedia.org/wikipedia/commons/f/fd/Venyov_%28Tula_Oblast%29_03-2014_img01_Bell_tower.jpg,https://www.openstreetmap.org/search?query=Венев,54.3528,38.2717
175,в,Вяземский,12999,https://www.google.com/search?q=Вяземский,https://yandex.ru/search/?text=Вяземский,https://ru.wikipedia.org/wiki/Вяземский_(город),https://upload.wikimedia.org/wikipedia/ru/6/62/%D0%93%D0%BE%D1%80%D0%BE%D0%B4_%D0%92%D1%8F%D0%B7%D0%B5%D0%BC%D1%81%D0%BA%D0%B8%D0%B9_%D1%83%D0%BB_%D0%9A%D0%BE%D0%BC%D0%BC%D1%83%D0%BD%D0%B8%D1%81%D1%82%D0%B8%D1%87%D0%B5%D1%81%D0%BA%D0%B0%D1%8F.jpg,https://www.openstreetmap.org/search?query=Вяземский,47.5378,134.7525
176,в,Волосово,11828,https://www.google.com/search?q=Волосово,https://yandex.ru/search/?text=Волосово,https://ru.wikipedia.org/wiki/Волосово,https://upload.wikimedia.org/wikipedia/commons/9/91/Volosovo_churche.JPG,https://www.openstreetmap.org/search?query=Волосово,56.1667,40.1667
177,в,Вилюйск,11322,https://www.google.com/search?q=Вилюйск,https://yandex.ru/search/?text=Вилюйск,https://ru.wikipedia.org/wiki/Вилюйск,https://upload.wikimedia.org/wikipedia/commons/2/29/%D0%97%D0%B4%D0%B0%D0%BD%D0%B8%D0%B5_%D0%B0%D0%B4%D0%BC%D0%B8%D0%BD%D0%B8%D1%81%D1%82%D1%80%D0%B0%D1%86%D0%B8%D0%B8_%D0%92%D0%B8%D0%BB%D1%8E%D0%B9%D1%81%D0%BA%D0%BE%D0%B3%D0%BE_%D1%83%D0%BB%D1%83%D1%81%D0%B0_-_panoramio.jpg,https://www.openstreetmap.org/search?query=Вилюйск,63.7553,121.6247
178,в,Верхний Тагил,10493,https://www.google.com/search?q=Верхний+Тагил,https://yandex.ru/search/?text=Верхний+Тагил,https://ru.wikipedia.org/wiki/Верхний_Тагил,https://upload.wikimedia.org/wikipedia/commons/8/8b/Coat_of_Arms_of_Verkhniy_Tagil_%28Sverdlovsk_oblast%29.png,https://www.openstreetmap.org/search?query=Верхний Тагил,57.3775,59.9597
179,в,Высоковск,10362,https://www.google.com/search?q=Высоковск,https://yandex.ru/search/?text=Высоковск,https://ru.wikipedia.org/wiki/Высоковск,https://upload.wikimedia.org/wikipedia/commons/f/fb/Vysokovsk_%289089776871%29.jpg,https://www.openstreetmap.org/search?query=Высоковск,56.3167,36.55
180,в,Ворсма,10253,https://www.google.com/search?q=Ворсма,https://yandex.ru/search/?text=Ворсма,https://ru.wikipedia.org/wiki/Ворсма,https://upload.wikimedia.org/wikipedia/commons/8/84/Vorsma.JPG,https://www.openstreetmap.org/search?query=Ворсма,55.9856,43.2717
181,в,Вытегра,10123,https://www.google.com/search?q=Вытегра,https://yandex.ru/search/?text=Вытегра,https://ru.wikipedia.org/wiki/Вытегра,https://upload.wikimedia.org/wikipedia/commons/1/1b/RU_Vytegra_Church.JPG,https://www.openstreetmap.org/search?query=Вытегра,61.0,36.4
182,в,Володарск,9898,https://www.google.com/search?q=Володарск,https://yandex.ru/search/?text=Володарск,https://ru.wikipedia.org/wiki/Володарск,https://upload.wikimedia.org/wikipedia/commons/8/88/Aerial_view_of_Volodarsk%2C_2011.jpg,https://www.openstreetmap.org/search?query=Володарск,56.2261,43.1861
183,в,Вуктыл,9716,https://www.google.com/search?q=Вуктыл,https://yandex.ru/search/?text=Вуктыл,https://ru.wikipedia.org/wiki/Вуктыл,https://upload.wikimedia.org/wikipedia/commons/3/39/%D0%92%D1%83%D0%BA%D1%82%D1%8B%D0%BB._%D0%9A%D0%BE%D0%BC%D0%BC%D1%83%D0%BD%D0%B8%D1%81%D1%82%D0%B8%D1%87%D0%B5%D1%81%D0%BA%D0%B0%D1%8F_%D1%83%D0%BB%D0%B8%D1%86%D0%B0._-_panoramio.jpg,https://www.openstreetmap.org/search?query=Вуктыл,63.8567,57.3094
184,в,Верхнеуральск,9282,https://www.google.com/search?q=Верхнеуральск,https://yandex.ru/search/?text=Верхнеуральск,https://ru.wikipedia.org/wiki/Верхнеуральск,https://upload.wikimedia.org/wikipedia/commons/6/69/St._Nicholas_Cathedral_in_Verhneuralsk.jpg,https://www.openstreetmap.org/search?query=Верхнеуральск,53.8769,59.2106
185,в,Верхняя Тура,8979,https://www.google.com/search?q=Верхняя+Тура,https://yandex.ru/search/?text=Верхняя+Тура,https://ru.wikipedia.org/wiki/Верхняя_Тура,https://upload.wikimedia.org/wikipedia/commons/3/3b/%D0%92%D0%BE%D0%B4%D0%BE%D0%BD%D0%B0%D0%BF%D0%BE%D1%80%D0%BD%D0%B0%D1%8F_%D0%B1%D0%B0%D1%88%D0%BD%D1%8F_%D0%BD%D0%B0_%D1%81%D1%82._%D0%92%D0%B5%D1%80%D1%85%D0%BD%D1%8F%D1%8F._%D0%A1%D0%B2%D0%B5%D1%80%D0%B4%D0%BB%D0%BE%D0%B2%D1%81%D0%BA%D0%B0%D1%8F_%D0%BE%D0%B1%D0%BB%D0%B0%D1%81%D1%82%D1%8C.jpg,https://www.openstreetmap.org/search?query=Верхняя Тура,58.3594,59.8175
186,в,Верхотурье,8563,https://www.google.com/search?q=Верхотурье,https://yandex.ru/search/?text=Верхотурье,https://ru.wikipedia.org/wiki/Верхотурье,https://upload.wikimedia.org/wikipedia/commons/2/2f/Verchotur%27e.jpg,https://www.openstreetmap.org/search?query=Верхотурье,58.8631,60.8036
187,в,Волчанск,8525,https://www.google.com/search?q=Волчанск,https://yandex.ru/search/?text=Волчанск,https://ru.wikipedia.org/w/index.php?search=Волчанск,,https://www.openstreetmap.org/search?query=Волчанск,59.8973,60.0153
188,в,Ветлуга,8336,https://www.google.com/search?q=Ветлуга,https://yandex.ru/search/?text=Ветлуга,https://ru.wikipedia.org/wiki/Ветлуга_(город),https://upload.wikimedia.org/wikipedia/commons/0/08/Vetluga._Heritage_housing_at_Lenin_Street_beginning.jpg,https://www.openstreetmap.org/search?query=Ветлуга,57.8556,45.7839
189,в,Велиж,6636,https://www.google.com/search?q=Велиж,https://yandex.ru/search/?text=Велиж,https://ru.wikipedia.org/wiki/Велиж,https://upload.wikimedia.org/wikipedia/commons/5/50/Velizh_024.JPG,https://www.openstreetmap.org/search?query=Велиж,55.6081,31.1925
190,в,Весьегонск,6016,https://www.google.com/search?q=Весьегонск,https://yandex.ru/search/?text=Весьегонск,https://ru.wikipedia.org/wiki/Весьегонск,https://upload.wikimedia.org/wikipedia/commons/5/50/Church_in_Vesyegonsk.jpg,https://www.openstreetmap.org/search?query=Весьегонск,58.6667,37.2667
191,в,Верея,5088,https://www.google.com/search?q=Верея,https://yandex.ru/search/?text=Верея,https://ru.wikipedia.org/wiki/Верея,https://upload.wikimedia.org/wikipedia/commons/f/fd/%D0%91%D0%BE%D0%B3%D0%BE%D1%8F%D0%B2%D0%BB%D0%B5%D0%BD%D1%81%D0%BA%D0%B0%D1%8F_%D1%86%D0%B5%D1%80%D0%BA%D0%BE%D0%B2%D1%8C_%28%D0%92%D0%B5%D1%80%D0%B5%D1%8F%29.jpg,https://www.openstreetmap.org/search?query=Верея,55.77,39.1011
192,в,Высоцк,1089,https://www.google.com/search?q=Высоцк,https://yandex.ru/search/?text=Высоцк,https://ru.wikipedia.org/wiki/Высоцк,https://upload.wikimedia.org/wikipedia/commons/2/25/Vysotsk_railway_station.JPG,https://www.openstreetmap.org/search?query=Высоцк,60.6333,28.5667
193,в,Верхоянск,1073,https://www.google.com/search?q=Верхоянск,https://yandex.ru/search/?text=Верхоянск,https://ru.wikipedia.org/wiki/Верхоянск,https://upload.wikimedia.org/wikipedia/commons/4/4b/Werchojansk_K%C3%A4ltepoldenkmal_II.JPG,https://www.openstreetmap.org/search?query=Верхоянск,67.5447,133.385
194,г,Грозный,305911,https://www.google.com/search?q=Грозный,https://yandex.ru/search/?text=Грозный,https://ru.wikipedia.org/wiki/Грозный,https://upload.wikimedia.org/wikipedia/commons/8/8a/Montage-of-Grozny-%282016%29.png,https://www.openstreetmap.org/search?query=Грозный,43.3083,45.7003
195,г,Глазов,92334,https://www.google.com/search?q=Глазов,https://yandex.ru/search/?text=Глазов,https://ru.wikipedia.org/wiki/Глазов,https://upload.wikimedia.org/wikipedia/commons/f/fe/Glazov.Svoboda.jpg,https://www.openstreetmap.org/search?query=Глазов,58.135,52.6558
196,г,Гатчина,91685,https://www.google.com/search?q=Гатчина,https://yandex.ru/search/?text=Гатчина,https://ru.wikipedia.org/wiki/Гатчина,https://upload.wikimedia.org/wikipedia/commons/6/6e/Gatchina_1.jpg,https://www.openstreetmap.org/search?query=Гатчина,59.5764,30.1283
197,г,Губкин,86229,https://www.google.com/search?q=Губкин,https://yandex.ru/search/?text=Губкин,https://ru.wikipedia.org/wiki/Губкин_(город),https://upload.wikimedia.org/wikipedia/commons/7/75/%D0%93%D1%83%D0%B1%D0%BA%D0%B8%D0%BD_%D1%81%D0%BE_%D1%81%D1%82%D0%BE%D1%80%D0%BE%D0%BD%D1%8B_%D0%B7%D0%B0%D0%BF%D1%80%D0%B0%D0%B2%D0%BA%D0%B8_%D0%A1%D0%B0%D0%BB%D1%82%D1%8B%D0%BA%D0%BE%D0%B2%D0%BE.jpg,https://www.openstreetmap.org/search?query=Губкин,51.2817,37.5458
198,г,Геленджик,76783,https://www.google.com/search?q=Геленджик,https://yandex.ru/search/?text=Геленджик,https://ru.wikipedia.org/wiki/Геленджик,https://upload.wikimedia.org/wikipedia/commons/5/5c/%D0%93%D0%B5%D0%BB%D0%B5%D0%BD%D0%B4%D0%B6%D0%B8%D0%BA_%D1%81_%D0%B2%D1%8B%D1%81%D0%BE%D1%82%D1%8B_640_%D0%BC_%D0%BD%D0%B0%D0%B4_%D1%83%D1%80%D0%BE%D0%B2%D0%BD%D0%B5%D0%BC_%D0%BC%D0%BE%D1%80%D1%8F.jpg,https://www.openstreetmap.org/search?query=Геленджик,44.5731,38.0747
199,г,Георгиевск,66436,https://www.google.com/search?q=Георгиевск,https://yandex.ru/search/?text=Георгиевск,https://ru.wikipedia.org/wiki/Георгиевск,https://upload.wikimedia.org/wikipedia/commons/e/e6/%D0%A1%D1%82%D0%B5%D0%BB%D0%B0_%D0%B2_%D1%87%D0%B5%D1%81%D1%82%D1%8C_200_%D0%BB%D0%B5%D1%82_%D0%93%D0%B5%D0%BE%D1%80%D0%B3%D0%B8%D0%B5%D0%B2%D1%81%D0%BA%D0%BE%D0%B3%D0%BE_%D1%82%D1%80%D0%B0%D0%BA%D1%82%D0%B0%D1%82%D0%B0.jpg,https://www.openstreetmap.org/search?query=Георгиевск,44.1519,43.4697
200,г,Горно-Алтайск,64464,https://www.google.com/search?q=Горно-Алтайск,https://yandex.ru/search/?text=Горно-Алтайск,https://ru.wikipedia.org/wiki/Горно-Алтайск,https://upload.wikimedia.org/wikipedia/commons/b/b4/Gorno-altajsk_04_squar_theatre.jpg,https://www.openstreetmap.org/search?query=Горно-Алтайск,51.9561,85.955
201,г,Гуково,63150,https://www.google.com/search?q=Гуково,https://yandex.ru/search/?text=Гуково,https://ru.wikipedia.org/wiki/Гуково,https://upload.wikimedia.org/wikipedia/commons/c/c8/%D0%A5%D1%80%D0%B0%D0%BC_%D0%B8%D0%BA%D0%BE%D0%BD%D1%8B_%D0%9A%D0%B0%D0%B7%D0%B0%D0%BD%D1%81%D0%BA%D0%BE%D0%B9_%D0%91%D0%BE%D0%B6%D0%B8%D0%B5%D0%B9_%D0%9C%D0%B0%D1%82%D0%B5%D1%80%D0%B8._%D0%A0%D0%BE%D1%81%D1%82%D0%BE%D0%B2%D0%BA%D0%B0%D1%8F_%D0%BE%D0%B1%D0%BB.%2C_%D0%B3._%D0%93%D1%83%D0%BA%D0%BE%D0%B2%D0%BE..jpg,https://www.openstreetmap.org/search?query=Гуково,48.0592,39.9361
202,г,Гудермес,55863,https://www.google.com/search?q=Гудермес,https://yandex.ru/search/?text=Гудермес,https://ru.wikipedia.org/wiki/Гудермес,https://upload.wikimedia.org/wikipedia/commons/8/81/Gudermes_City4.jpg,https://www.openstreetmap.org/search?query=Гудермес,43.3569,46.1053
203,г,Гусь-Хрустальный,52779,https://www.google.com/search?q=Гусь-Хрустальный,https://yandex.ru/search/?text=Гусь-Хрустальный,https://ru.wikipedia.org/wiki/Гусь-Хрустальный,https://upload.wikimedia.org/wikipedia/commons/d/d4/Georgievsky_Sobor.jpg,https://www.openstreetmap.org/search?query=Гусь-Хрустальный,55.6167,40.6667
204,г,Грязи,46683,https://www.google.com/search?q=Грязи,https://yandex.ru/search/?text=Грязи,https://ru.wikipedia.org/wiki/Грязи,https://upload.wikimedia.org/wikipedia/commons/8/82/Bus_station_in_Gryazi.JPG,https://www.openstreetmap.org/search?query=Грязи,52.4917,39.9436
205,г,Горячий Ключ,40299,https://www.google.com/search?q=Горячий+Ключ,https://yandex.ru/search/?text=Горячий+Ключ,https://ru.wikipedia.org/wiki/Горячий_Ключ,https://upload.wikimedia.org/wikipedia/commons/6/6d/%D0%93%D0%BE%D1%80%D1%8F%D1%87%D0%B8%D0%B9_%D0%BA%D0%BB%D1%8E%D1%87_%D1%81%D0%B2%D0%B5%D1%80%D1%85%D1%83_-_panoramio.jpg,https://www.openstreetmap.org/search?query=Горячий Ключ,44.6308,39.13
206,г,Гулькевичи,34272,https://www.google.com/search?q=Гулькевичи,https://yandex.ru/search/?text=Гулькевичи,https://ru.wikipedia.org/wiki/Гулькевичи,https://upload.wikimedia.org/wikipedia/ru/0/01/%D0%A1%D0%B2%D1%8F%D1%82%D0%BE-%D0%A2%D1%80%D0%BE%D0%B8%D1%86%D0%BA%D0%B8%D0%B9_%D1%85%D1%80%D0%B0%D0%BC_%D0%B3%D0%BE%D1%80%D0%BE%D0%B4%D0%B0_%D0%93%D1%83%D0%BB%D1%8C%D0%BA%D0%B5%D0%B2%D0%B8%D1%87%D0%B8.jpg,https://www.openstreetmap.org/search?query=Гулькевичи,45.3594,40.7072
207,г,Гай,33819,https://www.google.com/search?q=Гай,https://yandex.ru/search/?text=Гай,https://ru.wikipedia.org/wiki/Гай_(город),,https://www.openstreetmap.org/search?query=Гай,51.4739,58.4569
208,г,Городец,29712,https://www.google.com/search?q=Городец,https://yandex.ru/search/?text=Городец,https://ru.wikipedia.org/wiki/Городец,https://upload.wikimedia.org/wikipedia/commons/a/a2/Master_town_in_Gorodets_-_panoramio.jpg,https://www.openstreetmap.org/search?query=Городец,56.6514,43.475
209,г,Губкинский,29161,https://www.google.com/search?q=Губкинский,https://yandex.ru/search/?text=Губкинский,https://ru.wikipedia.org/wiki/Губкинский,https://upload.wikimedia.org/wikipedia/commons/e/e4/%D0%93%D1%83%D0%B1%D0%BA%D0%B8%D0%BD%D1%81%D0%BA%D0%B8%D0%B9.jpg,https://www.openstreetmap.org/search?query=Губкинский,64.4553,76.6169
210,г,Гагарин,28866,https://www.google.com/search?q=Гагарин,https://yandex.ru/search/?text=Гагарин,https://ru.wikipedia.org/wiki/Гагарин,https://upload.wikimedia.org/wikipedia/commons/e/e6/Yuri_Gagarin_with_awards.jpg,https://www.openstreetmap.org/search?query=Гагарин,55.5458,34.9967
211,г,Гусев,28484,https://www.google.com/search?q=Гусев,https://yandex.ru/search/?text=Гусев,https://ru.wikipedia.org/wiki/Гусев_(город),https://upload.wikimedia.org/wikipedia/commons/f/fb/Gumbin%C4%977.JPG,https://www.openstreetmap.org/search?query=Гусев,48.4417,40.4994
212,г,Гусиноозерск,23036,https://www.google.com/search?q=Гусиноозерск,https://yandex.ru/search/?text=Гусиноозерск,https://ru.wikipedia.org/wiki/Гусиноозерск,https://upload.wikimedia.org/wikipedia/commons/6/6d/%D0%A1%D1%82%D0%B5%D0%BB%D0%B0_%D0%93%D1%83%D1%81%D0%B8%D0%BD%D0%BE%D0%BE%D0%B7%D1%91%D1%80%D1%81%D0%BA.jpg,https://www.openstreetmap.org/search?query=Гусиноозерск,51.2833,106.5
213,г,Гурьевск,22375,https://www.google.com/search?q=Гурьевск,https://yandex.ru/search/?text=Гурьевск,https://ru.wikipedia.org/w/index.php?search=Гурьевск,,https://www.openstreetmap.org/search?query=Гурьевск,54.2833,85.9333
214,г,Губаха,19109,https://www.google.com/search?q=Губаха,https://yandex.ru/search/?text=Губаха,https://ru.wikipedia.org/wiki/Губаха,https://upload.wikimedia.org/wikipedia/commons/6/69/%D0%93%D1%83%D0%B1%D0%B0%D1%85%D0%B0%2C_%D0%B7%D0%B0%D0%BA%D0%B0%D1%82_-_panoramio.jpg,https://www.openstreetmap.org/search?query=Губаха,58.8706,57.5933
215,г,Голицыно,17502,https://www.google.com/search?q=Голицыно,https://yandex.ru/search/?text=Голицыно,https://ru.wikipedia.org/wiki/Голицыно,https://upload.wikimedia.org/wikipedia/commons/e/ef/Golitsyno%2C_Moscow_Oblast%2C_Russia_-_panoramio_%2811%29.jpg,https://www.openstreetmap.org/search?query=Голицыно,52.6436,40.6617
216,г,Галич,16754,https://www.google.com/search?q=Галич,https://yandex.ru/search/?text=Галич,https://ru.wikipedia.org/w/index.php?search=Галич,,https://www.openstreetmap.org/search?query=Галич,58.3797,42.3475
217,г,Гаврилов-Ям,16536,https://www.google.com/search?q=Гаврилов-Ям,https://yandex.ru/search/?text=Гаврилов-Ям,https://ru.wikipedia.org/wiki/Гаврилов-Ям,https://upload.wikimedia.org/wikipedia/commons/e/e7/Gavrilovyam-church.jpg,https://www.openstreetmap.org/search?query=Гаврилов-Ям,58.014965,56.246723
218,г,Грязовец,14808,https://www.google.com/search?q=Грязовец,https://yandex.ru/search/?text=Грязовец,https://ru.wikipedia.org/wiki/Грязовец,https://upload.wikimedia.org/wikipedia/commons/c/c1/%D0%94%D0%BE%D0%BC_%D0%9F%D1%8B%D0%BB%D0%B0%D0%B5%D0%B2%D0%B0%2C_%D0%B4%D0%BE%D0%BC_%D0%93%D1%83%D0%B4%D0%BA%D0%BE%D0%B2%D0%B0.JPG,https://www.openstreetmap.org/search?query=Грязовец,58.88,40.2525
219,г,Гвардейск,13313,https://www.google.com/search?q=Гвардейск,https://yandex.ru/search/?text=Гвардейск,https://ru.wikipedia.org/wiki/Гвардейск,https://upload.wikimedia.org/wikipedia/commons/9/9c/Gvardeisk_markt.jpg,https://www.openstreetmap.org/search?query=Гвардейск,54.6503,21.0686
220,г,Гаджиево,13157,https://www.google.com/search?q=Гаджиево,https://yandex.ru/search/?text=Гаджиево,https://ru.wikipedia.org/wiki/Гаджиево,https://upload.wikimedia.org/wikipedia/commons/4/49/%D0%9E%D0%B7%D0%B5%D1%80%D0%BE_%D0%B2_%D0%93%D0%B0%D0%B4%D0%B6%D0%B8%D0%B5%D0%B2%D0%B5.jpg,https://www.openstreetmap.org/search?query=Гаджиево,69.069,33.6657
221,г,Гороховец,12656,https://www.google.com/search?q=Гороховец,https://yandex.ru/search/?text=Гороховец,https://ru.wikipedia.org/wiki/Гороховец,https://upload.wikimedia.org/wikipedia/commons/d/d4/Gorokhovets_asv2019-05_img09_view_from_Nikolsky_Monastery.jpg,https://www.openstreetmap.org/search?query=Гороховец,56.1947,42.7003
222,г,Горняк,12330,https://www.google.com/search?q=Горняк,https://yandex.ru/search/?text=Горняк,https://ru.wikipedia.org/w/index.php?search=Горняк,https://upload.wikimedia.org/wikipedia/commons/d/d1/CostaRicaPS175r-20Colones-1901_f.jpg,https://www.openstreetmap.org/search?query=Горняк,53.605,39.4914
223,г,Горнозаводск,11176,https://www.google.com/search?q=Горнозаводск,https://yandex.ru/search/?text=Горнозаводск,https://ru.wikipedia.org/wiki/Горнозаводск,https://upload.wikimedia.org/wikipedia/commons/2/21/Gornozavodsk_001.jpg,https://www.openstreetmap.org/search?query=Горнозаводск,58.3758,58.3211
224,г,Городовиковск,8571,https://www.google.com/search?q=Городовиковск,https://yandex.ru/search/?text=Городовиковск,https://ru.wikipedia.org/wiki/Городовиковск,https://upload.wikimedia.org/wikipedia/commons/2/2a/Xurulzankavy.jpg,https://www.openstreetmap.org/search?query=Городовиковск,46.0869,41.9319
225,г,Гремячинск,8170,https://www.google.com/search?q=Гремячинск,https://yandex.ru/search/?text=Гремячинск,https://ru.wikipedia.org/wiki/Гремячинск,,https://www.openstreetmap.org/search?query=Гремячинск,58.56,57.835
226,г,Городище,7709,https://www.google.com/search?q=Городище,https://yandex.ru/search/?text=Городище,https://ru.wikipedia.org/w/index.php?search=Городище,https://upload.wikimedia.org/wikipedia/commons/0/08/%D0%9A%D0%B0%D1%88%D0%B8%D1%80%D1%81%D0%BA%D0%BE%D0%B5_%D0%B3%D0%BE%D1%80%D0%BE%D0%B4%D0%B8%D1%89%D0%B5_%2801%D0%B1%29.jpg,https://www.openstreetmap.org/search?query=Городище,54.6381,78.0494
227,г,Грайворон,6496,https://www.google.com/search?q=Грайворон,https://yandex.ru/search/?text=Грайворон,https://ru.wikipedia.org/wiki/Грайворон,https://upload.wikimedia.org/wikipedia/commons/a/af/%D0%A6%D0%B5%D0%BD%D1%82%D1%80%2C%D0%9B%D0%B5%D0%BD%D0%B8%D0%BD%D0%B0.jpg,https://www.openstreetmap.org/search?query=Грайворон,50.4783,35.6722
228,г,Гаврилов Посад,5560,https://www.google.com/search?q=Гаврилов+Посад,https://yandex.ru/search/?text=Гаврилов+Посад,https://ru.wikipedia.org/wiki/Гаврилов_Посад,https://upload.wikimedia.org/wikipedia/commons/0/04/Horse_Factory.jpg,https://www.openstreetmap.org/search?query=Гаврилов Посад,56.5597,40.1175
229,г,Гдов,3257,https://www.google.com/search?q=Гдов,https://yandex.ru/search/?text=Гдов,https://ru.wikipedia.org/wiki/Гдов,https://upload.wikimedia.org/wikipedia/commons/a/ab/Gdov.Karl-Marx-Street.20100803.DSC_0604.JPG,https://www.openstreetmap.org/search?query=Гдов,58.7406,27.8122
230,г,Горбатов,2236,https://www.google.com/search?q=Горбатов,https://yandex.ru/search/?text=Горбатов,https://ru.wikipedia.org/wiki/Горбатов,https://upload.wikimedia.org/wikipedia/commons/d/d1/Oka_River_bank_in_Gorbatov.jpg,https://www.openstreetmap.org/search?query=Горбатов,56.1331,43.0583
231,д,Дзержинск,229000,https://www.google.com/search?q=Дзержинск,https://yandex.ru/search/?text=Дзержинск,https://ru.wikipedia.org/w/index.php?search=Дзержинск,,https://www.openstreetmap.org/search?query=Дзержинск,56.2389,43.4631
232,д,Домодедово,137160,https://www.google.com/search?q=Домодедово,https://yandex.ru/search/?text=Домодедово,https://ru.wikipedia.org/wiki/Домодедово_(город),https://upload.wikimedia.org/wikipedia/commons/8/80/Domodedovo_rail_station_03.jpg,https://www.openstreetmap.org/search?query=Домодедово,55.4647,37.6981
233,д,Дербент,125832,https://www.google.com/search?q=Дербент,https://yandex.ru/search/?text=Дербент,https://ru.wikipedia.org/wiki/Дербент,https://upload.wikimedia.org/wikipedia/commons/2/2a/Montage-of-Derbent-%282016%29.png,https://www.openstreetmap.org/search?query=Дербент,42.0558,48.2903
234,д,Долгопрудный,116038,https://www.google.com/search?q=Долгопрудный,https://yandex.ru/search/?text=Долгопрудный,https://ru.wikipedia.org/wiki/Долгопрудный,https://upload.wikimedia.org/wikipedia/commons/c/ca/%D0%97%D0%B4%D0%B0%D0%BD%D0%B8%D0%B5_%D0%B0%D0%B4%D0%BC%D0%B8%D0%BD%D0%B8%D1%81%D1%82%D1%80%D0%B0%D1%86%D0%B8%D0%B8_%28%D0%94%D0%BE%D0%BB%D0%B3%D0%BE%D0%BF%D1%80%D1%83%D0%B4%D0%BD%D1%8B%D0%B9%29.jpg,https://www.openstreetmap.org/search?query=Долгопрудный,55.9372,37.5153
235,д,Димитровград,113472,https://www.google.com/search?q=Димитровград,https://yandex.ru/search/?text=Димитровград,https://ru.wikipedia.org/w/index.php?search=Димитровград,,https://www.openstreetmap.org/search?query=Димитровград,54.2139,49.6184
236,д,Дубна,74985,https://www.google.com/search?q=Дубна,https://yandex.ru/search/?text=Дубна,https://ru.wikipedia.org/wiki/Дубна,https://upload.wikimedia.org/wikipedia/commons/f/fc/Dubna_Collage.jpg,https://www.openstreetmap.org/search?query=Дубна,56.7333,37.1667
237,д,Дмитров,68792,https://www.google.com/search?q=Дмитров,https://yandex.ru/search/?text=Дмитров,https://ru.wikipedia.org/wiki/Дмитров,https://upload.wikimedia.org/wikipedia/commons/8/86/%D0%94%D0%BC%D0%B8%D1%82%D1%80%D0%BE%D0%B21.jpg,https://www.openstreetmap.org/search?query=Дмитров,56.35,37.5167
238,д,Донской,62621,https://www.google.com/search?q=Донской,https://yandex.ru/search/?text=Донской,https://ru.wikipedia.org/wiki/Донской_(город),https://upload.wikimedia.org/wikipedia/commons/7/76/%D0%A6%D0%B5%D1%80%D0%BA%D0%BE%D0%B2%D1%8C_%D0%A1%D0%BF%D0%B0%D1%81%D0%B0_%D0%9F%D1%80%D0%B5%D0%BE%D0%B1%D1%80%D0%B0%D0%B6%D0%B5%D0%BD%D0%B8%D1%8F_%D0%BD%D0%B0_%D0%91%D0%BE%D0%B1%D1%80%D0%B8%D0%BA-_%D0%B3%D0%BE%D1%80%D0%B5.JPG,https://www.openstreetmap.org/search?query=Донской,48.9983,43.9703
239,д,Дзержинский,56376,https://www.google.com/search?q=Дзержинский,https://yandex.ru/search/?text=Дзержинский,https://ru.wikipedia.org/wiki/Дзержинский_(город),https://upload.wikimedia.org/wikipedia/commons/b/b6/Dzerzhinsky%2C_Moscow_Oblast%2C_Russia_-_panoramio_%28182%29.jpg,https://www.openstreetmap.org/search?query=Дзержинский,55.6286,37.8469
240,д,Донецк,46732,https://www.google.com/search?q=Донецк,https://yandex.ru/search/?text=Донецк,https://ru.wikipedia.org/wiki/Донецк,https:/wiki/%D0%A4%D0%B0%D0%B9%D0%BB:DonetskCathedral.jpg,https://www.openstreetmap.org/search?query=Донецк,48.3403,39.9558
241,д,Джанкой,38007,https://www.google.com/search?q=Джанкой,https://yandex.ru/search/?text=Джанкой,https://ru.wikipedia.org/wiki/Джанкой,https://upload.wikimedia.org/wikipedia/commons/0/0c/%D0%9D%D0%BE%D1%87%D0%BD%D0%BE%D0%B9_%D0%B4%D0%B6%D0%B0%D0%BD%D0%BA%D0%BE%D0%B9.jpg,https://www.openstreetmap.org/search?query=Джанкой,58.014965,56.246723
242,д,Дальнегорск,34096,https://www.google.com/search?q=Дальнегорск,https://yandex.ru/search/?text=Дальнегорск,https://ru.wikipedia.org/wiki/Дальнегорск,https://upload.wikimedia.org/wikipedia/commons/1/11/%D0%9F%D1%83%D1%88%D0%BA%D0%B8%D0%BD%D1%81%D0%BA%D0%B0%D1%8F_%28%D0%9C%D0%B8%D0%BA%D1%80%D0%BE%D1%80%D0%B0%D0%B9%D0%BE%D0%BD_%D0%93%D0%BE%D1%80%D0%B5%D0%BB%D0%BE%D0%B5%2C_%D0%94%D0%B0%D0%BB%D1%8C%D0%BD%D0%B5%D0%B3%D0%BE%D1%80%D1%81%D0%BA%29.jpg,https://www.openstreetmap.org/search?query=Дальнегорск,58.014965,56.246723
243,д,Добрянка,32072,https://www.google.com/search?q=Добрянка,https://yandex.ru/search/?text=Добрянка,https://ru.wikipedia.org/wiki/Добрянка,https://upload.wikimedia.org/wikipedia/commons/9/93/%D0%A6%D0%B5%D0%BD%D1%82%D1%80_%D1%81%D1%82%D0%B0%D1%80%D0%BE%D0%B9_%D0%94%D0%BE%D0%B1%D1%80%D1%8F%D0%BD%D0%BA%D0%B8.jpg,https://www.openstreetmap.org/search?query=Добрянка,58.4608,56.4122
244,д,Дюртюли,31379,https://www.google.com/search?q=Дюртюли,https://yandex.ru/search/?text=Дюртюли,https://ru.wikipedia.org/wiki/Дюртюли,https://upload.wikimedia.org/wikipedia/commons/f/ff/Dyurtyuli_oil_industry_%28WR%29.tif,https://www.openstreetmap.org/search?query=Дюртюли,54.75,53.7833
245,д,Дедовск,30500,https://www.google.com/search?q=Дедовск,https://yandex.ru/search/?text=Дедовск,https://ru.wikipedia.org/wiki/Дедовск,https://upload.wikimedia.org/wikipedia/commons/8/86/Dedovsk%2C_Moscow_Oblast%2C_Russia_-_panoramio_%2822%29.jpg,https://www.openstreetmap.org/search?query=Дедовск,55.8614,37.1256
246,д,Дагестанские Огни,29716,https://www.google.com/search?q=Дагестанские+Огни,https://yandex.ru/search/?text=Дагестанские+Огни,https://ru.wikipedia.org/wiki/Дагестанские_Огни,https://upload.wikimedia.org/wikipedia/commons/b/b4/%D0%94%D0%B0%D0%B3_%D0%9E%D0%B3%D0%BD%D0%B8.jpg,https://www.openstreetmap.org/search?query=Дагестанские Огни,42.1133,48.1892
247,д,Дивногорск,29232,https://www.google.com/search?q=Дивногорск,https://yandex.ru/search/?text=Дивногорск,https://ru.wikipedia.org/wiki/Дивногорск,https://upload.wikimedia.org/wikipedia/commons/8/83/Divnogorsk_pier.JPG,https://www.openstreetmap.org/search?query=Дивногорск,55.9594,92.3619
248,д,Десногорск,27225,https://www.google.com/search?q=Десногорск,https://yandex.ru/search/?text=Десногорск,https://ru.wikipedia.org/wiki/Десногорск,https://upload.wikimedia.org/wikipedia/commons/4/42/Desnogorsk_%28%D0%94%D0%B5%D1%81%D0%BD%D0%BE%D0%B3%D0%BE%D1%80%D1%81%D0%BA%29_broadway_%28%D0%91%D1%80%D0%BE%D0%B4%D0%B2%D0%B5%D0%B9%29_-_panoramio.jpg,https://www.openstreetmap.org/search?query=Десногорск,54.15,33.2833
249,д,Дятьково,26161,https://www.google.com/search?q=Дятьково,https://yandex.ru/search/?text=Дятьково,https://ru.wikipedia.org/wiki/Дятьково,https://upload.wikimedia.org/wikipedia/commons/3/30/Dyatkovo.jpg,https://www.openstreetmap.org/search?query=Дятьково,53.6,34.3389
250,д,Дальнереченск,25074,https://www.google.com/search?q=Дальнереченск,https://yandex.ru/search/?text=Дальнереченск,https://ru.wikipedia.org/wiki/Дальнереченск,https://upload.wikimedia.org/wikipedia/commons/b/b9/%D0%94%D0%B0%D0%BB%D1%8C%D0%BD%D0%B5%D1%80%D0%B5%D1%87%D0%B5%D0%BD%D1%81%D0%BA%2C_%D0%B7%D0%B4%D0%B0%D0%BD%D0%B8%D0%B5_%D0%B0%D0%B4%D0%BC%D0%B8%D0%BD%D0%B8%D1%81%D1%82%D1%80%D0%B0%D1%86%D0%B8%D0%B8.jpg,https://www.openstreetmap.org/search?query=Дальнереченск,45.9339,133.7225
251,д,Давлеканово,23380,https://www.google.com/search?q=Давлеканово,https://yandex.ru/search/?text=Давлеканово,https://ru.wikipedia.org/wiki/Давлеканово,https://upload.wikimedia.org/wikipedia/commons/a/a7/%D0%92%D0%B8%D0%B4_%D1%81_%D1%82%D0%BE%D1%80%D1%86%D0%B0.JPG,https://www.openstreetmap.org/search?query=Давлеканово,54.2167,55.05
252,д,Дудинка,20804,https://www.google.com/search?q=Дудинка,https://yandex.ru/search/?text=Дудинка,https://ru.wikipedia.org/wiki/Дудинка,https://upload.wikimedia.org/wikipedia/commons/0/0c/DudinkaAll.jpg,https://www.openstreetmap.org/search?query=Дудинка,69.4058,86.1778
253,д,Данков,18711,https://www.google.com/search?q=Данков,https://yandex.ru/search/?text=Данков,https://ru.wikipedia.org/wiki/Данков,https://upload.wikimedia.org/wikipedia/commons/b/be/Dankov_-_12_StGeorge_Church.jpg,https://www.openstreetmap.org/search?query=Данков,53.2517,39.1478
254,д,Дегтярск,15636,https://www.google.com/search?q=Дегтярск,https://yandex.ru/search/?text=Дегтярск,https://ru.wikipedia.org/wiki/Дегтярск,,https://www.openstreetmap.org/search?query=Дегтярск,56.6961,60.0981
255,д,Данилов,14522,https://www.google.com/search?q=Данилов,https://yandex.ru/search/?text=Данилов,https://ru.wikipedia.org/wiki/Данилов_(город),https://upload.wikimedia.org/wikipedia/commons/b/b5/%D0%A1%D1%82%D0%B0%D0%BD%D1%86%D0%B8%D1%8F_%D0%94%D0%B0%D0%BD%D0%B8%D0%BB%D0%BE%D0%B2.jpg,https://www.openstreetmap.org/search?query=Данилов,58.1853,40.1789
256,д,Дубовка,13659,https://www.google.com/search?q=Дубовка,https://yandex.ru/search/?text=Дубовка,https://ru.wikipedia.org/wiki/Дубовка,,https://www.openstreetmap.org/search?query=Дубовка,50.2333,45.55
257,д,Далматово,12248,https://www.google.com/search?q=Далматово,https://yandex.ru/search/?text=Далматово,https://ru.wikipedia.org/wiki/Далматово,https://upload.wikimedia.org/wikipedia/commons/c/c6/Gorskii_04656u.jpg,https://www.openstreetmap.org/search?query=Далматово,56.2553,62.9244
258,д,Долинск,11851,https://www.google.com/search?q=Долинск,https://yandex.ru/search/?text=Долинск,https://ru.wikipedia.org/wiki/Долинск,https://upload.wikimedia.org/wikipedia/commons/e/e8/Sakhalin_Railway_Dolinsk_3.jpg,https://www.openstreetmap.org/search?query=Долинск,58.014965,56.246723
259,д,Дрезна,11313,https://www.google.com/search?q=Дрезна,https://yandex.ru/search/?text=Дрезна,https://ru.wikipedia.org/wiki/Дрезна,https://upload.wikimedia.org/wikipedia/commons/d/df/Drezna_lyceum.jpg,https://www.openstreetmap.org/search?query=Дрезна,55.7458,38.8497
260,д,Дигора,10089,https://www.google.com/search?q=Дигора,https://yandex.ru/search/?text=Дигора,https://ru.wikipedia.org/wiki/Дигора,https://upload.wikimedia.org/wikipedia/commons/0/04/North_ossetia_map.png,https://www.openstreetmap.org/search?query=Дигора,43.1581,44.1569
261,д,Дорогобуж,9357,https://www.google.com/search?q=Дорогобуж,https://yandex.ru/search/?text=Дорогобуж,https://ru.wikipedia.org/wiki/Дорогобуж,https://upload.wikimedia.org/wikipedia/commons/1/1e/Dorogobuzh.jpg,https://www.openstreetmap.org/search?query=Дорогобуж,55.1167,33.25
262,д,Дно,7381,https://www.google.com/search?q=Дно,https://yandex.ru/search/?text=Дно,https://ru.wikipedia.org/wiki/Дно_(город),https://upload.wikimedia.org/wikipedia/commons/c/c5/Dno_Station_asv2018-07_img1.jpg,https://www.openstreetmap.org/search?query=Дно,57.8333,29.9833
263,д,Дмитриев-Льговский,6266,https://www.google.com/search?q=Дмитриев-Льговский,https://yandex.ru/search/?text=Дмитриев-Льговский,https://ru.wikipedia.org/wiki/Дмитриев-Льговский,,https://www.openstreetmap.org/search?query=Дмитриев-Льговский,52.1281,35.0808
264,д,Демидов,6055,https://www.google.com/search?q=Демидов,https://yandex.ru/search/?text=Демидов,https://ru.wikipedia.org/wiki/Демидов_(город),https://upload.wikimedia.org/wikipedia/commons/2/2c/%D0%A3%D1%81%D0%BF%D0%B5%D0%BD%D1%81%D0%BA%D0%B8%D0%B9_%D1%81%D0%BE%D0%B1%D0%BE%D1%80.jpg,https://www.openstreetmap.org/search?query=Демидов,49.2333,45.3667
265,д,Дмитровск,4967,https://www.google.com/search?q=Дмитровск,https://yandex.ru/search/?text=Дмитровск,https://ru.wikipedia.org/wiki/Дмитровск,https://upload.wikimedia.org/wikipedia/commons/2/26/%D0%94%D0%BC%D0%B8%D1%82%D1%80%D0%BE%D0%B2%D1%81%D0%BA-%D0%BE%D1%80%D0%BB%D0%BE%D0%B2%D1%81%D0%BA%D0%B8%D0%B91.JPG,https://www.openstreetmap.org/search?query=Дмитровск,58.014965,56.246723
266,д,Духовщина,3909,https://www.google.com/search?q=Духовщина,https://yandex.ru/search/?text=Духовщина,https://ru.wikipedia.org/wiki/Духовщина,https://upload.wikimedia.org/wikipedia/commons/4/4d/%D0%9F%D1%83%D1%88%D0%BA%D0%B0_%D0%90-19_%D0%B2_%D0%94%D1%83%D1%85%D0%BE%D0%B2%D1%89%D0%B8%D0%BD%D0%B5.jpg,https://www.openstreetmap.org/search?query=Духовщина,55.1908,32.4067
267,е,Екатеринбург,1493749,https://www.google.com/search?q=Екатеринбург,https://yandex.ru/search/?text=Екатеринбург,https://ru.wikipedia.org/wiki/Екатеринбург,https:/wiki/%D0%A4%D0%B0%D0%B9%D0%BB:Stock_alarm.svg,https://www.openstreetmap.org/search?query=Екатеринбург,56.8575,60.6125
268,е,Ессентуки,113056,https://www.google.com/search?q=Ессентуки,https://yandex.ru/search/?text=Ессентуки,https://ru.wikipedia.org/wiki/Ессентуки,https://upload.wikimedia.org/wikipedia/commons/e/ed/%D0%93%D1%80%D1%8F%D0%B7%D0%B5%D0%BB%D0%B5%D1%87%D0%B5%D0%B1%D0%BD%D0%B8%D1%86%D0%B0%2C_%D0%B3._%D0%95%D1%81%D1%81%D0%B5%D0%BD%D1%82%D1%83%D0%BA%D0%B8.jpg,https://www.openstreetmap.org/search?query=Ессентуки,44.0444,42.8606
269,е,Евпатория,108248,https://www.google.com/search?q=Евпатория,https://yandex.ru/search/?text=Евпатория,https://ru.wikipedia.org/wiki/Евпатория,https://upload.wikimedia.org/wikipedia/commons/5/54/Yevpatoria_panorama.jpeg,https://www.openstreetmap.org/search?query=Евпатория,58.014965,56.246723
270,е,Елец,102313,https://www.google.com/search?q=Елец,https://yandex.ru/search/?text=Елец,https://ru.wikipedia.org/wiki/Елец,https://upload.wikimedia.org/wikipedia/commons/7/7e/Clock_tower%2C_Yelets.JPG,https://www.openstreetmap.org/search?query=Елец,52.6133,38.5203
271,е,Ейск,83094,https://www.google.com/search?q=Ейск,https://yandex.ru/search/?text=Ейск,https://ru.wikipedia.org/wiki/Ейск,https://upload.wikimedia.org/wikipedia/commons/7/75/%D0%95%D0%B9%D1%81%D0%BA_%D1%83%D0%BB%D0%B8%D1%86%D0%B0_%D0%A1%D0%B2%D0%B5%D1%80%D0%B4%D0%BB%D0%BE%D0%B2%D0%B0.jpg,https://www.openstreetmap.org/search?query=Ейск,46.6989,38.2792
272,е,Елабуга,74392,https://www.google.com/search?q=Елабуга,https://yandex.ru/search/?text=Елабуга,https://ru.wikipedia.org/wiki/Елабуга,https://upload.wikimedia.org/wikipedia/commons/2/2d/Shishkinskiye_prudy_%28park_in_Elabuga%29-14.jpg,https://www.openstreetmap.org/search?query=Елабуга,55.7589,52.0733
273,е,Егорьевск,72763,https://www.google.com/search?q=Егорьевск,https://yandex.ru/search/?text=Егорьевск,https://ru.wikipedia.org/wiki/Егорьевск,https://upload.wikimedia.org/wikipedia/commons/f/f1/%D0%95%D0%B3%D0%BE%D1%80%D1%8C%D0%B5%D0%B2%D1%81%D0%BA%D0%B8%D0%B9_%D0%91%D0%B8%D0%B3-%D0%91%D1%8D%D0%BD_%D1%81%D0%BE_%D1%81%D1%82%D0%BE%D1%80%D0%BE%D0%BD%D1%8B_%D0%BF%D0%BB.%D0%A1%D0%BE%D0%B1%D0%BE%D1%80%D0%BD%D0%BE%D0%B9.jpg,https://www.openstreetmap.org/search?query=Егорьевск,55.3783,39.0411
274,е,Елизово,39345,https://www.google.com/search?q=Елизово,https://yandex.ru/search/?text=Елизово,https://ru.wikipedia.org/wiki/Елизово,https://upload.wikimedia.org/wikipedia/commons/a/a3/Lotnisko_Pietropaw%C5%82owsk_Kamczacki.jpg,https://www.openstreetmap.org/search?query=Елизово,53.1674,155.5291
275,е,Ефремов,34439,https://www.google.com/search?q=Ефремов,https://yandex.ru/search/?text=Ефремов,https://ru.wikipedia.org/wiki/Ефремов_(город),https://upload.wikimedia.org/wikipedia/commons/9/91/Efremov_1.jpg,https://www.openstreetmap.org/search?query=Ефремов,53.1531,38.0947
276,е,Еманжелинск,28216,https://www.google.com/search?q=Еманжелинск,https://yandex.ru/search/?text=Еманжелинск,https://ru.wikipedia.org/wiki/Еманжелинск,https://upload.wikimedia.org/wikipedia/commons/3/31/Yemanzhelinsk._Victory_Square_%28WR%29.tif,https://www.openstreetmap.org/search?query=Еманжелинск,54.7547,61.3208
277,е,Ершов,18796,https://www.google.com/search?q=Ершов,https://yandex.ru/search/?text=Ершов,https://ru.wikipedia.org/wiki/Ершов_(город),https://upload.wikimedia.org/wikipedia/commons/4/40/Ershov-vokzal.jpg,https://www.openstreetmap.org/search?query=Ершов,51.3333,48.2833
278,е,Енисейск,17774,https://www.google.com/search?q=Енисейск,https://yandex.ru/search/?text=Енисейск,https://ru.wikipedia.org/wiki/Енисейск,https://upload.wikimedia.org/wikipedia/commons/a/ae/Transfiguration_Cathedral_%28Eniseysk%29.jpg,https://www.openstreetmap.org/search?query=Енисейск,58.4497,92.1703
279,е,Емва,12379,https://www.google.com/search?q=Емва,https://yandex.ru/search/?text=Емва,https://ru.wikipedia.org/wiki/Емва,,https://www.openstreetmap.org/search?query=Емва,62.6517,50.7806
280,е,Ермолино,10120,https://www.google.com/search?q=Ермолино,https://yandex.ru/search/?text=Ермолино,https://ru.wikipedia.org/wiki/Ермолино_(город),https://upload.wikimedia.org/wikipedia/commons/7/73/Rusinovo_house_13j.JPG,https://www.openstreetmap.org/search?query=Ермолино,56.8,37.8167
281,е,Ельня,8743,https://www.google.com/search?q=Ельня,https://yandex.ru/search/?text=Ельня,https://ru.wikipedia.org/wiki/Ельня,https://upload.wikimedia.org/wikipedia/commons/e/e4/Yelnya_railway_station_2.jpg,https://www.openstreetmap.org/search?query=Ельня,54.5736,33.1822
282,ж,Жуковский,107560,https://www.google.com/search?q=Жуковский,https://yandex.ru/search/?text=Жуковский,https://ru.wikipedia.org/wiki/Жуковский_(город),https://upload.wikimedia.org/wikipedia/commons/3/36/Narkomvod_-_panoramio_-_Andris_Malygin.jpg,https://www.openstreetmap.org/search?query=Жуковский,44.77,43.1494
283,ж,Железногорск,100446,https://www.google.com/search?q=Железногорск,https://yandex.ru/search/?text=Железногорск,https://ru.wikipedia.org/w/index.php?search=Железногорск,,https://www.openstreetmap.org/search?query=Железногорск,56.2511,93.5319
284,ж,Жигулевск,51641,https://www.google.com/search?q=Жигулевск,https://yandex.ru/search/?text=Жигулевск,https://ru.wikipedia.org/wiki/Жигулевск,https://upload.wikimedia.org/wikipedia/commons/f/fd/%D0%96%D0%B8%D0%B3%D1%83%D0%BB%D1%91%D0%B2%D1%81%D0%BA_%D1%88%D0%BA%D0%BE%D0%BB%D0%B0.jpg,https://www.openstreetmap.org/search?query=Жигулевск,53.3997,49.4953
285,ж,Железноводск,24919,https://www.google.com/search?q=Железноводск,https://yandex.ru/search/?text=Железноводск,https://ru.wikipedia.org/wiki/Железноводск,https://upload.wikimedia.org/wikipedia/commons/7/7b/Zheleznovodsk.jpg,https://www.openstreetmap.org/search?query=Железноводск,44.1394,43.0197
286,ж,Железногорск-Илимский,22950,https://www.google.com/search?q=Железногорск-Илимский,https://yandex.ru/search/?text=Железногорск-Илимский,https://ru.wikipedia.org/wiki/Железногорск-Илимский,https://upload.wikimedia.org/wikipedia/commons/0/00/Zheleznogorsk-Ilimsky_%28%D0%96%D0%B5%D0%BB%D0%B5%D0%B7%D0%BD%D0%BE%D0%B3%D0%BE%CC%81%D1%80%D1%81%D0%BA-%D0%98%D0%BB%D0%B8%CC%81%D0%BC%D1%81%D0%BA%D0%B8%D0%B9%29_-_panoramio.jpg,https://www.openstreetmap.org/search?query=Железногорск-Илимский,56.5739,104.1239
287,ж,Жуковка,16448,https://www.google.com/search?q=Жуковка,https://yandex.ru/search/?text=Жуковка,https://ru.wikipedia.org/wiki/Жуковка_(город),,https://www.openstreetmap.org/search?query=Жуковка,52.55,43.75
288,ж,Жирновск,15475,https://www.google.com/search?q=Жирновск,https://yandex.ru/search/?text=Жирновск,https://ru.wikipedia.org/wiki/Жирновск,https://upload.wikimedia.org/wikipedia/commons/9/99/%D0%A6%D0%B5%D0%BD%D1%82%D1%80%D0%B0%D0%BB%D1%8C%D0%BD%D0%B0%D1%8F_%D1%83%D0%BB%D0%B8%D1%86%D0%B0_%D0%9B%D0%BE%D0%BC%D0%BE%D0%BD%D0%BE%D1%81%D0%BE%D0%B2%D0%B0.jpg,https://www.openstreetmap.org/search?query=Жирновск,50.9833,44.7667
289,ж,Жердевка,13964,https://www.google.com/search?q=Жердевка,https://yandex.ru/search/?text=Жердевка,https://ru.wikipedia.org/wiki/Жердевка,https://upload.wikimedia.org/wikipedia/commons/b/bb/%D0%96%D0%B5%D1%80%D0%B4%D0%B5%D0%B2%D0%BA%D0%B0_%D0%BD%D0%B0_%D0%B2%D1%8A%D0%B5%D0%B7%D0%B4%D0%B5_%D1%81%D0%BE_%D1%81%D1%82%D0%BE%D1%80%D0%BE%D0%BD%D1%8B_%D0%A1%D1%83%D0%BA%D0%BC%D0%B0%D0%BD%D0%BE%D0%B2%D0%BA%D0%B8_08.JPG,https://www.openstreetmap.org/search?query=Жердевка,51.8486,41.4606
290,ж,Жуков,13727,https://www.google.com/search?q=Жуков,https://yandex.ru/search/?text=Жуков,https://ru.wikipedia.org/wiki/Жуков_(город),https://upload.wikimedia.org/wikipedia/commons/e/e1/Zhukov_town_-_Zhukov_memorial02.jpg,https://www.openstreetmap.org/search?query=Жуков,47.5158,41.1972
291,ж,Жиздра,5399,https://www.google.com/search?q=Жиздра,https://yandex.ru/search/?text=Жиздра,https://ru.wikipedia.org/wiki/Жиздра_(город),https://upload.wikimedia.org/wikipedia/commons/3/3c/Zhizdra-pld-town-1913.jpg,https://www.openstreetmap.org/search?query=Жиздра,53.7453,34.7347
292,з,Златоуст,163919,https://www.google.com/search?q=Златоуст,https://yandex.ru/search/?text=Златоуст,https://ru.wikipedia.org/wiki/Златоуст,https://upload.wikimedia.org/wikipedia/commons/4/47/Zlatoust2011.jpg,https://www.openstreetmap.org/search?query=Златоуст,55.2581,84.1433
293,з,Зеленодольск,100039,https://www.google.com/search?q=Зеленодольск,https://yandex.ru/search/?text=Зеленодольск,https://ru.wikipedia.org/wiki/Зеленодольск,https://upload.wikimedia.org/wikipedia/commons/d/de/Zeleny_Dol_Station_and_surroundings_08-2016_img5.jpg,https://www.openstreetmap.org/search?query=Зеленодольск,55.8456,48.5181
294,з,Заречный,65502,https://www.google.com/search?q=Заречный,https://yandex.ru/search/?text=Заречный,https://ru.wikipedia.org/w/index.php?search=Заречный,,https://www.openstreetmap.org/search?query=Заречный,53.2023,45.1846
295,з,Зеленогорск,61633,https://www.google.com/search?q=Зеленогорск,https://yandex.ru/search/?text=Зеленогорск,https://ru.wikipedia.org/w/index.php?search=Зеленогорск,,https://www.openstreetmap.org/search?query=Зеленогорск,56.5217,48.7869
296,з,Заринск,45886,https://www.google.com/search?q=Заринск,https://yandex.ru/search/?text=Заринск,https://ru.wikipedia.org/wiki/Заринск,https://upload.wikimedia.org/wikipedia/commons/2/2d/%D0%94%D0%BE%D0%BC_%D0%BA%D1%83%D0%BB%D1%8C%D1%82%D1%83%D1%80%D1%8B_%D0%9C%D0%B5%D1%82%D0%B0%D0%BB%D0%BB%D1%83%D1%80%D0%B3.jpg,https://www.openstreetmap.org/search?query=Заринск,53.7275,84.93
297,з,Заинск,39887,https://www.google.com/search?q=Заинск,https://yandex.ru/search/?text=Заинск,https://ru.wikipedia.org/wiki/Заинск,,https://www.openstreetmap.org/search?query=Заинск,55.3192,52.0625
298,з,Заволжье,37588,https://www.google.com/search?q=Заволжье,https://yandex.ru/search/?text=Заволжье,https://ru.wikipedia.org/wiki/Заволжье_(город),https://upload.wikimedia.org/wikipedia/commons/6/6e/Technicum-front_Zavolzhye.jpg,https://www.openstreetmap.org/search?query=Заволжье,56.6428,43.3936
299,з,Зеленокумск,34113,https://www.google.com/search?q=Зеленокумск,https://yandex.ru/search/?text=Зеленокумск,https://ru.wikipedia.org/wiki/Зеленокумск,https://upload.wikimedia.org/wikipedia/commons/4/4c/%D0%93%D0%BE%D1%80%D0%BE%D0%B4%D1%81%D0%BA%D0%BE%D0%B9_%D0%BF%D0%B0%D1%80%D0%BA_%D0%B3._%D0%97%D0%B5%D0%BB%D0%B5%D0%BD%D0%BE%D0%BA%D1%83%D0%BC%D1%81%D0%BA%D0%B0_01.jpg,https://www.openstreetmap.org/search?query=Зеленокумск,44.4069,43.8806
300,з,Зима,30515,https://www.google.com/search?q=Зима,https://yandex.ru/search/?text=Зима,https://ru.wikipedia.org/wiki/Зима_(город),https://upload.wikimedia.org/wikipedia/commons/7/7e/ZimaStation.jpg,https://www.openstreetmap.org/search?query=Зима,58.014965,56.246723
301,з,Знаменск,26701,https://www.google.com/search?q=Знаменск,https://yandex.ru/search/?text=Знаменск,https://ru.wikipedia.org/wiki/Знаменск_(город),https://upload.wikimedia.org/wikipedia/commons/8/86/%D0%94%D0%BE%D0%BC_%D0%9E%D1%84%D0%B8%D1%86%D0%B5%D1%80%D0%BE%D0%B2_%28%D0%97%D0%BD%D0%B0%D0%BC%D0%B5%D0%BD%D1%81%D0%BA%2C_%D0%90%D1%81%D1%82%D1%80%D0%B0%D1%85%D0%B0%D0%BD%D1%8C%29.jpg,https://www.openstreetmap.org/search?query=Знаменск,48.5833,45.75
302,з,Заводоуковск,26542,https://www.google.com/search?q=Заводоуковск,https://yandex.ru/search/?text=Заводоуковск,https://ru.wikipedia.org/wiki/Заводоуковск,https://upload.wikimedia.org/wikipedia/commons/8/84/Zavodoukovsk_Temple.jpg,https://www.openstreetmap.org/search?query=Заводоуковск,56.5081,66.5419
303,з,Зерноград,24063,https://www.google.com/search?q=Зерноград,https://yandex.ru/search/?text=Зерноград,https://ru.wikipedia.org/wiki/Зерноград,https://upload.wikimedia.org/wikipedia/commons/5/56/%D0%97%D0%B5%D1%80%D0%BD%D0%BE%D0%B3%D1%80%D0%B0%D0%B4_%D0%A0%D0%BE%D1%81%D1%82%D0%BE%D0%B2%D1%81%D0%BA%D0%BE%D0%B9_%D0%BE%D0%B1%D0%BB%D0%B0%D1%81%D1%82%D0%B8._%D0%9F%D0%BB%D0%BE%D1%89%D0%B0%D0%B4%D1%8C.jpg,https://www.openstreetmap.org/search?query=Зерноград,46.8478,40.3067
304,з,Зея,22984,https://www.google.com/search?q=Зея,https://yandex.ru/search/?text=Зея,https://ru.wikipedia.org/wiki/Зея_(город),,https://www.openstreetmap.org/search?query=Зея,53.75,127.2667
